[{"OBJECTID": 45042, "SITE_NO": 5168, "SITE_NAME": "BARWON HEADS ROAD/WARALILY BVD", "SITE_TYPE": "INT", "STATUS": "OPERATIONAL", "lat": -38.2366569988309, "lon": 144.377875000086, "SIGNAL": "R"}, {"OBJECTID": 45043, "SITE_NO": 2015, "SITE_NAME": "MELBOURNE NR HOBART (KNOX CITY)", "SITE_TYPE": "POS", "STATUS": "OPERATIONAL", "lat": -37.8692499992282, "lon": 145.24197400045, "SIGNAL": "G"}, {"OBJECTID": 45044, "SITE_NO": 6273, "SITE_NAME": "MITCHELL/QUEEN", "SITE_TYPE": "INT", "STATUS": "OPERATIONAL", "lat": -36.7613119990048, "lon": 144.280338999791, "SIGNAL": "Y"}, {"OBJECTID": 45045, "SITE_NO": 520, "SITE_NAME": "MOOROODUC/SAGES", "SITE_TYPE": "INT", "STATUS": "OPERATIONAL", "lat": -38.1956659988826, "lon": 145.133708999782, "SIGNAL": "G"}, {"OBJECTID": 45046, "SITE_NO": 3629, "SITE_NAME": "CHURCHILL NR BRAYBROOK COMMUNITY CENTRE", "SITE_TYPE": "POS", "STATUS": "OPERATIONAL", "lat": -37.7861339994886, "lon": 144.853383999994, "SIGNAL": "G"}, {"OBJECTID": 45047, "SITE_NO": 3170, "SITE_NAME": "STH GIPPS'D HWY (HIGHST) NR CHILDERS", "SITE_TYPE": "POS", "STATUS": "OPERATIONAL", "lat": -38.1115369990355, "lon": 145.283073000461, "SIGNAL": "Y"}, {"OBJECTID": 45048, "SITE_NO": 3171, "SITE_NAME": "STH GIPPS'D HWY (HIGH) NR LYALL", "SITE_TYPE": "POS", "STATUS": "OPERATIONAL", "lat": -38.1092949988792, "lon": 145.283487000277, "SIGNAL": "Y"}, {"OBJECTID": 45049, "SITE_NO": 550, "SITE_NAME": "EASTBOURNE RD/VILLAGE GLEN DR", "SITE_TYPE": "INT", "STATUS": "OPERATIONAL", "lat": -38.3672059988917, "lon": 144.879111000335, "SIGNAL": "Y"}, {"OBJECTID": 45050, "SITE_NO": 3486, "SITE_NAME": "WILLIAMSTOWN/SHOPPING CENTRE ENT", "SITE_TYPE": "INT", "STATUS": "OPERATIONAL", "lat": -37.8169509990932, "lon": 144.882678999933, "SIGNAL": "R"}, {"OBJECTID": 45051, "SITE_NO": 516, "SITE_NAME": "SEAFORD/WELLS", "SITE_TYPE": "INT", "STATUS": "OPERATIONAL", "lat": -38.1089339992953, "lon": 145.136270000339, "SIGNAL": "R"}, {"OBJECTID": 45052, "SITE_NO": 3259, "SITE_NAME": "MURRAY/NORTHLAND SHOP EAST ACCESS RD", "SITE_TYPE": "INT", "STATUS": "OPERATIONAL", "lat": -37.7406289991995, "lon": 145.027710999581, "SIGNAL": "Y"}, {"OBJECTID": 45053, "SITE_NO": 3612, "SITE_NAME": "PASCOE VALE/TAGGERTY CRES STH", "SITE_TYPE": "INT", "STATUS": "OPERATIONAL", "lat": -37.6624669989102, "lon": 144.922434000295, "SIGNAL": "Y"}, {"OBJECTID": 45054, "SITE_NO": 3487, "SITE_NAME": "WILLIAMSTOWN NR THOMAS", "SITE_TYPE": "POS", "STATUS": "OPERATIONAL", "lat": -37.8234489990964, "lon": 144.88143700001, "SIGNAL": "G"}, {"OBJECTID": 45055, "SITE_NO": 4160, "SITE_NAME": "ST GEORGES NR KEMP", "SITE_TYPE": "POS", "STATUS": "OPERATIONAL", "lat": -37.761825999483, "lon": 144.99294299952, "SIGNAL": "R"}, {"OBJECTID": 45056, "SITE_NO": 395, "SITE_NAME": "HUTTON/CHAPEL", "SITE_TYPE": "INT", "STATUS": "OPERATIONAL", "lat": -38.0127869991054, "lon": 145.159187000263, "SIGNAL": "G"}, {"OBJECTID": 45057, "SITE_NO": 495, "SITE_NAME": "HUTTON/GREEN/PERRY", "SITE_TYPE": "INT", "STATUS": "OPERATIONAL", "lat": -38.0114969990627, "lon": 145.171278999637, "SIGNAL": "Y"}, {"OBJECTID": 45058, "SITE_NO": 6258, "SITE_NAME": "CALDER HWY NR CAMP", "SITE_TYPE": "POS", "STATUS": "OPERATIONAL", "lat": -36.7962409988957, "lon": 144.244077000061, "SIGNAL": "Y"}, {"OBJECTID": 45059, "SITE_NO": 2855, "SITE_NAME": "GLADSTONE PARK NR BELMONT", "SITE_TYPE": "FLASH PX", "STATUS": "OPERATIONAL", "lat": -37.6886059992944, "lon": 144.883619000413, "SIGNAL": "G"}, {"OBJECTID": 45060, "SITE_NO": 6234, "SITE_NAME": "CALDER HWY NR VERDON ST", "SITE_TYPE": "POS", "STATUS": "OPERATIONAL", "lat": -36.5754119995012, "lon": 143.868051999848, "SIGNAL": "G"}, {"OBJECTID": 45061, "SITE_NO": 3443, "SITE_NAME": "CENTRE NR GILBERT", "SITE_TYPE": "POS", "STATUS": "OPERATIONAL", "lat": -37.9176579990206, "lon": 145.032066000268, "SIGNAL": "G"}, {"OBJECTID": 45062, "SITE_NO": 5047, "SITE_NAME": "WESTERN BEACH NR GINN", "SITE_TYPE": "FLASH PX", "STATUS": "OPERATIONAL", "lat": -38.138647998806, "lon": 144.355793000298, "SIGNAL": "G"}, {"OBJECTID": 45063, "SITE_NO": 965, "SITE_NAME": "STH GIPPSLAND HWY/WATERVIEW", "SITE_TYPE": "INT", "STATUS": "OPERATIONAL", "lat": -38.0209239994225, "lon": 145.239141999989, "SIGNAL": "G"}, {"OBJECTID": 45064, "SITE_NO": 827, "SITE_NAME": "FERNTREE GULLY/WINDERMERE", "SITE_TYPE": "INT", "STATUS": "OPERATIONAL", "lat": -37.8884679993682, "lon": 145.262922000192, "SIGNAL": "G"}, {"OBJECTID": 45065, "SITE_NO": 2839, "SITE_NAME": "CAMBERWELL NR EVANS", "SITE_TYPE": "POS", "STATUS": "OPERATIONAL", "lat": -37.830684998994, "lon": 145.05596399946, "SIGNAL": "G"}, {"OBJECTID": 45066, "SITE_NO": 513, "SITE_NAME": "BEACONSFIELD-BERWICK/B'FIELD-EMERALD", "SITE_TYPE": "INT", "STATUS": "OPERATIONAL", "lat": -38.0441309987973, "lon": 145.36674800018, "SIGNAL": "G"}, {"OBJECTID": 45067, "SITE_NO": 514, "SITE_NAME": "CRANBOURNE-FRANKSTON/UNION/PINDARA", "SITE_TYPE": "INT", "STATUS": "OPERATIONAL", "lat": -38.1507119994157, "lon": 145.195116999946, "SIGNAL": "R"}, {"OBJECTID": 45068, "SITE_NO": 805, "SITE_NAME": "GEORGE/CHURCH", "SITE_TYPE": "INT", "STATUS": "OPERATIONAL", "lat": -37.7794169994554, "lon": 145.139219999631, "SIGNAL": "R"}, {"OBJECTID": 45069, "SITE_NO": 396, "SITE_NAME": "NARRE WARREN NTH/MARAMBA", "SITE_TYPE": "INT", "STATUS": "OPERATIONAL", "lat": -38.0079839994751, "lon": 145.310423999998, "SIGNAL": "R"}, {"OBJECTID": 45070, "SITE_NO": 7093, "SITE_NAME": "AQUEDUCT/ST HELENA SHOP CENTRE", "SITE_TYPE": "INT", "STATUS": "OPERATIONAL", "lat": -37.6984429994081, "lon": 147.382081000173, "SIGNAL": "Y"}, {"OBJECTID": 45071, "SITE_NO": 301, "SITE_NAME": "PLYMOUTH/YARRA", "SITE_TYPE": "INT", "STATUS": "OPERATIONAL", "lat": -37.7835699990111, "lon": 145.274055000521, "SIGNAL": "G"}, {"OBJECTID": 45072, "SITE_NO": 4489, "SITE_NAME": "WESTGATE FWY/POWER", "SITE_TYPE": "INT", "STATUS": "OPERATIONAL", "lat": -37.8267579991945, "lon": 144.965826000198, "SIGNAL": "R"}, {"OBJECTID": 45073, "SITE_NO": 820, "SITE_NAME": "MONBULK/CLEGG", "SITE_TYPE": "INT", "STATUS": "OPERATIONAL", "lat": -37.7900099991759, "lon": 145.38789599956, "SIGNAL": "G"}, {"OBJECTID": 45074, "SITE_NO": 2465, "SITE_NAME": "JOHNSTON O/H LANE W CLARKE GANTRY 15", "SITE_TYPE": "OH LANE", "STATUS": "OPERATIONAL", "lat": -37.8007199991971, "lon": 145.001941999598, "SIGNAL": "Y"}, {"OBJECTID": 45075, "SITE_NO": 2466, "SITE_NAME": "JOHNSTON O/H LANE E CLARKE GANTRY 16", "SITE_TYPE": "OH LANE", "STATUS": "OPERATIONAL", "lat": -37.8007649994855, "lon": 145.002421999878, "SIGNAL": "Y"}, {"OBJECTID": 45076, "SITE_NO": 2444, "SITE_NAME": "QUEENS O'HEAD S KINGSWAY GANTRY 01", "SITE_TYPE": "OH LANE", "STATUS": "OPERATIONAL", "lat": -37.8367509988501, "lon": 144.973321000002, "SIGNAL": "Y"}, {"OBJECTID": 45077, "SITE_NO": 2456, "SITE_NAME": "JOHNSTON O/H LANE W HARMSWORTH GANTRY 6", "SITE_TYPE": "OH LANE", "STATUS": "OPERATIONAL", "lat": -37.7996229989992, "lon": 144.990760000434, "SIGNAL": "Y"}, {"OBJECTID": 45078, "SITE_NO": 2457, "SITE_NAME": "JOHNSTON O/H LANE W SYDNEY GANTRY 7", "SITE_TYPE": "OH LANE", "STATUS": "OPERATIONAL", "lat": -37.7997659993966, "lon": 144.992196999853, "SIGNAL": "Y"}, {"OBJECTID": 45079, "SITE_NO": 2458, "SITE_NAME": "JOHNSTON O/H LANE E HODDLE GANTRY 8", "SITE_TYPE": "OH LANE", "STATUS": "OPERATIONAL", "lat": -37.7998739993667, "lon": 144.993276000283, "SIGNAL": "R"}, {"OBJECTID": 45080, "SITE_NO": 2459, "SITE_NAME": "JOHNSTON O/H LANE W PARK GANTRY 9", "SITE_TYPE": "OH LANE", "STATUS": "OPERATIONAL", "lat": -37.8000589995544, "lon": 144.995174999575, "SIGNAL": "G"}, {"OBJECTID": 45081, "SITE_NO": 2460, "SITE_NAME": "JOHNSTON O/H LANE E PARK GANTRY 10", "SITE_TYPE": "OH LANE", "STATUS": "OPERATIONAL", "lat": -37.8000969987591, "lon": 144.995572999667, "SIGNAL": "G"}, {"OBJECTID": 45082, "SITE_NO": 2461, "SITE_NAME": "JOHNSTON O/H LANE E RICH GANTRY 11", "SITE_TYPE": "OH LANE", "STATUS": "OPERATIONAL", "lat": -37.8002579991798, "lon": 144.997220999626, "SIGNAL": "Y"}, {"OBJECTID": 45083, "SITE_NO": 2462, "SITE_NAME": "JOHNSTON O/H LANE E HUNTER GANTRY 12", "SITE_TYPE": "OH LANE", "STATUS": "OPERATIONAL", "lat": -37.8003899991488, "lon": 144.998574000555, "SIGNAL": "R"}, {"OBJECTID": 45084, "SITE_NO": 2463, "SITE_NAME": "JOHNSTON O/H LANE W TRENERRY GANTRY 13", "SITE_TYPE": "OH LANE", "STATUS": "OPERATIONAL", "lat": -37.8005039994219, "lon": 144.99972900032, "SIGNAL": "Y"}, {"OBJECTID": 45085, "SITE_NO": 302, "SITE_NAME": "CRANBOURNE-FRANK/SOUTHGATEWAY", "SITE_TYPE": "INT", "STATUS": "OPERATIONAL", "lat": -38.1492249989657, "lon": 145.19665000046, "SIGNAL": "Y"}, {"OBJECTID": 45086, "SITE_NO": 3281, "SITE_NAME": "HUNTINGDALE NR ESTELLE", "SITE_TYPE": "POS", "STATUS": "OPERATIONAL", "lat": -37.8927359988551, "lon": 145.106998999861, "SIGNAL": "G"}, {"OBJECTID": 45087, "SITE_NO": 2518, "SITE_NAME": "SUNSHINE/ROBERTS", "SITE_TYPE": "INT", "STATUS": "OPERATIONAL", "lat": -37.8006239992124, "lon": 144.87166899974, "SIGNAL": "Y"}, {"OBJECTID": 45088, "SITE_NO": 2791, "SITE_NAME": "KEILOR NR COOPER", "SITE_TYPE": "POS", "STATUS": "OPERATIONAL", "lat": -37.7401709991382, "lon": 144.899491999764, "SIGNAL": "G"}, {"OBJECTID": 45089, "SITE_NO": 109, "SITE_NAME": "SWANSEA/HULL", "SITE_TYPE": "INT", "STATUS": "OPERATIONAL", "lat": -37.7764509992103, "lon": 145.363422999852, "SIGNAL": "Y"}, {"OBJECTID": 45090, "SITE_NO": 1558, "SITE_NAME": "WGF 130m West of Williamstown Rd O/B", "SITE_TYPE": "OH LANE", "STATUS": "OPERATIONAL", "lat": -37.8253639987433, "lon": 144.883789999931, "SIGNAL": "G"}, {"OBJECTID": 45091, "SITE_NO": 2486, "SITE_NAME": "CHADSTONE SHOPPING CENTRE POS AT ENT 1", "SITE_TYPE": "POS", "STATUS": "OPERATIONAL", "lat": -37.8874399989738, "lon": 145.078689999589, "SIGNAL": "G"}, {"OBJECTID": 45092, "SITE_NO": 963, "SITE_NAME": "CHELTENHAM/PARKMORE SHOP CENTRE", "SITE_TYPE": "INT", "STATUS": "OPERATIONAL", "lat": -37.9941409989511, "lon": 145.172622999674, "SIGNAL": "Y"}, {"OBJECTID": 45093, "SITE_NO": 5657, "SITE_NAME": "PHE/BAILEY", "SITE_TYPE": "INT", "STATUS": "OPERATIONAL", "lat": -37.8260319994361, "lon": 147.632011000132, "SIGNAL": "Y"}, {"OBJECTID": 45094, "SITE_NO": 1100, "SITE_NAME": "MAROONDAH HWY/EASTLINK", "SITE_TYPE": "INT", "STATUS": "OPERATIONAL", "lat": -37.817105998875, "lon": 145.217350000459, "SIGNAL": "R"}, {"OBJECTID": 45095, "SITE_NO": 1101, "SITE_NAME": "MAROONDAH HWY/HILLCREST/CARPARK", "SITE_TYPE": "INT", "STATUS": "OPERATIONAL", "lat": -37.8173719994581, "lon": 145.215096000291, "SIGNAL": "G"}, {"OBJECTID": 45096, "SITE_NO": 4224, "SITE_NAME": "SWAN/YARRA/AMRAD", "SITE_TYPE": "INT", "STATUS": "OPERATIONAL", "lat": -37.8265079995115, "lon": 145.020154000205, "SIGNAL": "R"}, {"OBJECTID": 45097, "SITE_NO": 5268, "SITE_NAME": "SAYERS/MORRIS", "SITE_TYPE": "INT", "STATUS": "OPERATIONAL", "lat": -37.8505319988131, "lon": 144.706347999545, "SIGNAL": "Y"}, {"OBJECTID": 45098, "SITE_NO": 403, "SITE_NAME": "NARRE WARREN NTH/MAGID/RYELANDS", "SITE_TYPE": "INT", "STATUS": "OPERATIONAL", "lat": -38.0138859993955, "lon": 145.309269999673, "SIGNAL": "G"}, {"OBJECTID": 45099, "SITE_NO": 4434, "SITE_NAME": "FOOTSCRAY/WATERFRONT WAY", "SITE_TYPE": "INT", "STATUS": "OPERATIONAL", "lat": -37.8105229989652, "lon": 144.939097000188, "SIGNAL": "Y"}, {"OBJECTID": 45100, "SITE_NO": 4435, "SITE_NAME": "FOOTSCRAY/WESTERN LINK STH-BND OFF RAMP", "SITE_TYPE": "INT", "STATUS": "OPERATIONAL", "lat": -37.8095089995267, "lon": 144.935965999442, "SIGNAL": "R"}, {"OBJECTID": 45101, "SITE_NO": 336, "SITE_NAME": "BARKLY/RAILWAY/RING", "SITE_TYPE": "INT", "STATUS": "OPERATIONAL", "lat": -38.2203669994999, "lon": 145.040741999867, "SIGNAL": "R"}, {"OBJECTID": 45102, "SITE_NO": 3079, "SITE_NAME": "UPPER HEIDELBERG NR IVANHOE", "SITE_TYPE": "POS", "STATUS": "OPERATIONAL", "lat": -37.7669839991912, "lon": 145.044641000218, "SIGNAL": "G"}, {"OBJECTID": 45103, "SITE_NO": 2799, "SITE_NAME": "AMIS BTN VISTA & BUCKLEY", "SITE_TYPE": "FLASH PX", "STATUS": "OPERATIONAL", "lat": -37.749348999316, "lon": 144.860221000324, "SIGNAL": "R"}, {"OBJECTID": 45104, "SITE_NO": 3138, "SITE_NAME": "CANTERBURY/SURREY", "SITE_TYPE": "INT", "STATUS": "OPERATIONAL", "lat": -37.8279879993734, "lon": 145.115199000173, "SIGNAL": "Y"}, {"OBJECTID": 45105, "SITE_NO": 5301, "SITE_NAME": "PAKINGTON/NICHOLAS", "SITE_TYPE": "INT", "STATUS": "OPERATIONAL", "lat": -38.1563179987431, "lon": 144.345342999833, "SIGNAL": "Y"}, {"OBJECTID": 45106, "SITE_NO": 241, "SITE_NAME": "THOMPSON NR GLADESVILLE", "SITE_TYPE": "POS", "STATUS": "OPERATIONAL", "lat": -38.0685989990398, "lon": 145.143340999773, "SIGNAL": "Y"}, {"OBJECTID": 45107, "SITE_NO": 3639, "SITE_NAME": "OLD DANDENONG/BOURKE", "SITE_TYPE": "INT", "STATUS": "OPERATIONAL", "lat": -37.9397829987986, "lon": 145.090829000103, "SIGNAL": "R"}, {"OBJECTID": 45108, "SITE_NO": 3405, "SITE_NAME": "DYNON/DOCK LINK", "SITE_TYPE": "INT", "STATUS": "OPERATIONAL", "lat": -37.801761999138, "lon": 144.917100999566, "SIGNAL": "R"}, {"OBJECTID": 45109, "SITE_NO": 478, "SITE_NAME": "VIRGINIA NR STEPHENSONS", "SITE_TYPE": "FLASH PX", "STATUS": "OPERATIONAL", "lat": -37.877967999107, "lon": 145.128625000161, "SIGNAL": "R"}, {"OBJECTID": 45110, "SITE_NO": 2647, "SITE_NAME": "BOUNDARY/PLUMMER/SPENCER", "SITE_TYPE": "INT", "STATUS": "OPERATIONAL", "lat": -37.8155289989836, "lon": 144.810367999459, "SIGNAL": "G"}, {"OBJECTID": 45111, "SITE_NO": 3760, "SITE_NAME": "MELBOURNE NR WILKINS", "SITE_TYPE": "POS", "STATUS": "OPERATIONAL", "lat": -37.8459529993942, "lon": 144.885490000541, "SIGNAL": "Y"}, {"OBJECTID": 45112, "SITE_NO": 6682, "SITE_NAME": "GREY BTN FRANKLIN & WRIGHT", "SITE_TYPE": "FLASH PX", "STATUS": "OPERATIONAL", "lat": -38.1934309992651, "lon": 146.539677999451, "SIGNAL": "Y"}, {"OBJECTID": 45113, "SITE_NO": 6683, "SITE_NAME": "FRANKLIN NR POST OFFICE PLACE", "SITE_TYPE": "FLASH PX", "STATUS": "OPERATIONAL", "lat": -38.1954359987153, "lon": 146.538092999549, "SIGNAL": "R"}, {"OBJECTID": 45114, "SITE_NO": 6684, "SITE_NAME": "SEYMOUR BTN FRANKLIN & CHURCH", "SITE_TYPE": "FLASH PX", "STATUS": "OPERATIONAL", "lat": -38.1961089990202, "lon": 146.536679999469, "SIGNAL": "Y"}, {"OBJECTID": 45115, "SITE_NO": 5670, "SITE_NAME": "NICHOLSON BTN RAYMOND & LOCHIEL", "SITE_TYPE": "FLASH PX", "STATUS": "OPERATIONAL", "lat": -37.7093989991822, "lon": 148.453753000251, "SIGNAL": "Y"}, {"OBJECTID": 45116, "SITE_NO": 3567, "SITE_NAME": "MURRUMBEENA/KANGAROO", "SITE_TYPE": "INT", "STATUS": "OPERATIONAL", "lat": -37.8971249994797, "lon": 145.065109999787, "SIGNAL": "R"}, {"OBJECTID": 45117, "SITE_NO": 304, "SITE_NAME": "FRANKSTON-DANDENONG/ABBOTTS", "SITE_TYPE": "INT", "STATUS": "OPERATIONAL", "lat": -38.0316599992706, "lon": 145.211947999784, "SIGNAL": "Y"}, {"OBJECTID": 45118, "SITE_NO": 3507, "SITE_NAME": "KOROROIT CREEK NR ADELINE", "SITE_TYPE": "POS", "STATUS": "OPERATIONAL", "lat": -37.8571349993867, "lon": 144.881869999658, "SIGNAL": "R"}, {"OBJECTID": 45119, "SITE_NO": 401, "SITE_NAME": "NARRE WARREN NTH/ERNST WANKE", "SITE_TYPE": "INT", "STATUS": "OPERATIONAL", "lat": -37.9967019993713, "lon": 145.312828000383, "SIGNAL": "Y"}, {"OBJECTID": 45120, "SITE_NO": 6408, "SITE_NAME": "WESTERN HWY/WILLIAMS/DUFF", "SITE_TYPE": "INT", "STATUS": "OPERATIONAL", "lat": -36.7260869994053, "lon": 142.204979000191, "SIGNAL": "R"}, {"OBJECTID": 45121, "SITE_NO": 2670, "SITE_NAME": "FURLONG NR CAMPERDOWN", "SITE_TYPE": "POS", "STATUS": "OPERATIONAL", "lat": -37.7616999988395, "lon": 144.823464000008, "SIGNAL": "G"}, {"OBJECTID": 45122, "SITE_NO": 2671, "SITE_NAME": "FURLONG NR FORD", "SITE_TYPE": "POS", "STATUS": "OPERATIONAL", "lat": -37.7623539990797, "lon": 144.828619999468, "SIGNAL": "G"}, {"OBJECTID": 45123, "SITE_NO": 2672, "SITE_NAME": "MCKECHNIE BTN MARSDEN & ENA", "SITE_TYPE": "FLASH PX", "STATUS": "OPERATIONAL", "lat": -37.7454849993811, "lon": 144.799820000471, "SIGNAL": "Y"}, {"OBJECTID": 45124, "SITE_NO": 4654, "SITE_NAME": "VICTORIA/RIVER", "SITE_TYPE": "INT", "STATUS": "OPERATIONAL", "lat": -37.8118359990166, "lon": 145.013490000191, "SIGNAL": "Y"}, {"OBJECTID": 45125, "SITE_NO": 757, "SITE_NAME": "YOUNG NR WELLS", "SITE_TYPE": "FLASH PX", "STATUS": "OPERATIONAL", "lat": -38.144021999337, "lon": 145.12514200035, "SIGNAL": "G"}, {"OBJECTID": 45126, "SITE_NO": 943, "SITE_NAME": "SPRINGVALE/SPOTLIGHT CENTRE", "SITE_TYPE": "INT", "STATUS": "OPERATIONAL", "lat": -37.9340239987388, "lon": 145.155597999871, "SIGNAL": "R"}, {"OBJECTID": 45127, "SITE_NO": 445, "SITE_NAME": "PHE/OVERLAND", "SITE_TYPE": "INT", "STATUS": "OPERATIONAL", "lat": -38.0222799991667, "lon": 145.30110999983, "SIGNAL": "Y"}, {"OBJECTID": 45128, "SITE_NO": 308, "SITE_NAME": "POINT NEPEAN/HYGEIA", "SITE_TYPE": "INT", "STATUS": "OPERATIONAL", "lat": -38.3710649991373, "lon": 144.830858999615, "SIGNAL": "Y"}, {"OBJECTID": 45129, "SITE_NO": 4515, "SITE_NAME": "LATROBE NR HARBOUR", "SITE_TYPE": "POS", "STATUS": "OPERATIONAL", "lat": -37.8147289993986, "lon": 144.945934000412, "SIGNAL": "Y"}, {"OBJECTID": 45130, "SITE_NO": 5048, "SITE_NAME": "YARRA/EASTERN BEACH", "SITE_TYPE": "INT", "STATUS": "OPERATIONAL", "lat": -38.1451429989885, "lon": 144.36455499962, "SIGNAL": "R"}, {"OBJECTID": 45131, "SITE_NO": 4527, "SITE_NAME": "WURUNDJERI/TELSTRA DOME N/E ENTRANCE", "SITE_TYPE": "INT", "STATUS": "OPERATIONAL", "lat": -37.8135519989561, "lon": 144.947160999909, "SIGNAL": "Y"}, {"OBJECTID": 45132, "SITE_NO": 3417, "SITE_NAME": "ELGIN/DRUMMOND", "SITE_TYPE": "INT", "STATUS": "OPERATIONAL", "lat": -37.7972929992047, "lon": 144.968773999455, "SIGNAL": "G"}, {"OBJECTID": 45133, "SITE_NO": 539, "SITE_NAME": "MONASH FWY/BLACKBURN O/B", "SITE_TYPE": "RAMP MTR", "STATUS": "OPERATIONAL", "lat": -37.8951759987867, "lon": 145.14612100029, "SIGNAL": "Y"}, {"OBJECTID": 45134, "SITE_NO": 3409, "SITE_NAME": "OLYMPIC BLVD/RECTANGULAR STADIUM EAST AC", "SITE_TYPE": "INT", "STATUS": "OPERATIONAL", "lat": -37.8241459990201, "lon": 144.985044999979, "SIGNAL": "R"}, {"OBJECTID": 45135, "SITE_NO": 5238, "SITE_NAME": "OLD GEELONG/FIAT DEALERSHIP ENT", "SITE_TYPE": "INT", "STATUS": "OPERATIONAL", "lat": -37.8787509992071, "lon": 144.708581000006, "SIGNAL": "Y"}, {"OBJECTID": 45136, "SITE_NO": 6334, "SITE_NAME": "ECHUCA-MOOROOPNA NR ANN", "SITE_TYPE": "FLASH PX", "STATUS": "OPERATIONAL", "lat": -36.3924319995481, "lon": 145.355925000506, "SIGNAL": "Y"}, {"OBJECTID": 45137, "SITE_NO": 6409, "SITE_NAME": "WESTERN HWY/WAWUNNA", "SITE_TYPE": "INT", "STATUS": "OPERATIONAL", "lat": -36.7104959994908, "lon": 142.196254000189, "SIGNAL": "R"}, {"OBJECTID": 45138, "SITE_NO": 2661, "SITE_NAME": "COBURNS/RICHARD", "SITE_TYPE": "INT", "STATUS": "OPERATIONAL", "lat": -37.6942909988812, "lon": 144.566338000542, "SIGNAL": "Y"}, {"OBJECTID": 45139, "SITE_NO": 2659, "SITE_NAME": "TAYLORS/CARBINE", "SITE_TYPE": "INT", "STATUS": "OPERATIONAL", "lat": -37.7280369987712, "lon": 144.797384999862, "SIGNAL": "Y"}, {"OBJECTID": 45140, "SITE_NO": 6681, "SITE_NAME": "BASS HWY/GRANTVILLE-GLEN ALVIE/PIER", "SITE_TYPE": "INT", "STATUS": "OPERATIONAL", "lat": -38.4075329988001, "lon": 145.530272999501, "SIGNAL": "G"}, {"OBJECTID": 45141, "SITE_NO": 5834, "SITE_NAME": "MIDLAND HWY (ALBERT) NR HERTFORD", "SITE_TYPE": "POS", "STATUS": "OPERATIONAL", "lat": -37.5866029989992, "lon": 143.840978999977, "SIGNAL": "Y"}, {"OBJECTID": 45142, "SITE_NO": 5835, "SITE_NAME": "MIDLAND HWY NR VICTORIA", "SITE_TYPE": "POS", "STATUS": "OPERATIONAL", "lat": -37.5992809990051, "lon": 143.841073000114, "SIGNAL": "R"}, {"OBJECTID": 45143, "SITE_NO": 399, "SITE_NAME": "BERWICK-CRANBOURNE/BEMERSYDE (NTH)", "SITE_TYPE": "INT", "STATUS": "OPERATIONAL", "lat": -38.0492599992772, "lon": 145.340419999855, "SIGNAL": "Y"}, {"OBJECTID": 45144, "SITE_NO": 3211, "SITE_NAME": "MCNAUGHTON NR TORTEVAL", "SITE_TYPE": "POS", "STATUS": "OPERATIONAL", "lat": -37.9288049987876, "lon": 145.136360999705, "SIGNAL": "Y"}, {"OBJECTID": 45145, "SITE_NO": 4557, "SITE_NAME": "BATMAN NR GATE 2 MELBOURNE PARK TENNIS C", "SITE_TYPE": "POS", "STATUS": "OPERATIONAL", "lat": -37.8203829993004, "lon": 144.976220000226, "SIGNAL": "R"}, {"OBJECTID": 45146, "SITE_NO": 3548, "SITE_NAME": "CHURCH NR CARPENTER", "SITE_TYPE": "FLASH PX", "STATUS": "OPERATIONAL", "lat": -37.9142019988828, "lon": 144.994699000537, "SIGNAL": "Y"}, {"OBJECTID": 45147, "SITE_NO": 3547, "SITE_NAME": "CHURCH NR ST ANDREWS", "SITE_TYPE": "FLASH PX", "STATUS": "OPERATIONAL", "lat": -37.9121249987111, "lon": 144.992335000252, "SIGNAL": "G"}, {"OBJECTID": 45148, "SITE_NO": 2648, "SITE_NAME": "HAMPSHIRE NR HARVESTER", "SITE_TYPE": "FLASH PX", "STATUS": "OPERATIONAL", "lat": -37.7864179989531, "lon": 144.831715000264, "SIGNAL": "Y"}, {"OBJECTID": 45149, "SITE_NO": 389, "SITE_NAME": "MAROONDAH NR COMO", "SITE_TYPE": "POS", "STATUS": "OPERATIONAL", "lat": -37.7513389988431, "lon": 145.369967000457, "SIGNAL": "G"}, {"OBJECTID": 45150, "SITE_NO": 402, "SITE_NAME": "O'SULLIVAN NR GLENWAY ARCADE", "SITE_TYPE": "FLASH PX", "STATUS": "OPERATIONAL", "lat": -37.8785399992328, "lon": 145.165052000531, "SIGNAL": "G"}, {"OBJECTID": 45151, "SITE_NO": 3837, "SITE_NAME": "STANHOPE NR LORNE", "SITE_TYPE": "POS", "STATUS": "OPERATIONAL", "lat": -37.8267039989548, "lon": 145.06491599992, "SIGNAL": "G"}, {"OBJECTID": 45152, "SITE_NO": 158, "SITE_NAME": "CANTERBURY/BUNNINGS HARDWARE ACCESS", "SITE_TYPE": "INT", "STATUS": "OPERATIONAL", "lat": -37.8288049994386, "lon": 145.279466000253, "SIGNAL": "G"}, {"OBJECTID": 45153, "SITE_NO": 3009, "SITE_NAME": "ORMOND ESP NR PINE", "SITE_TYPE": "POS", "STATUS": "OPERATIONAL", "lat": -37.8865739988005, "lon": 144.989563999445, "SIGNAL": "G"}, {"OBJECTID": 45154, "SITE_NO": 2646, "SITE_NAME": "COBURNS/BARRIES", "SITE_TYPE": "INT", "STATUS": "OPERATIONAL", "lat": -37.6875769989394, "lon": 144.567553000376, "SIGNAL": "R"}, {"OBJECTID": 45155, "SITE_NO": 4637, "SITE_NAME": "CHESTERVILLE NR RADCLIFFE", "SITE_TYPE": "POS", "STATUS": "OPERATIONAL", "lat": -37.9593309987025, "lon": 145.056825000501, "SIGNAL": "Y"}, {"OBJECTID": 45156, "SITE_NO": 588, "SITE_NAME": "WICKLOW NR TOORAK", "SITE_TYPE": "FLASH PX", "STATUS": "OPERATIONAL", "lat": -37.7948799994573, "lon": 145.280456000209, "SIGNAL": "G"}, {"OBJECTID": 45157, "SITE_NO": 6250, "SITE_NAME": "HOLDSWORTH/HOLMES/SANDHURST", "SITE_TYPE": "INT", "STATUS": "OPERATIONAL", "lat": -36.7357029994071, "lon": 144.266885000016, "SIGNAL": "G"}, {"OBJECTID": 45158, "SITE_NO": 6251, "SITE_NAME": "NAPIER NR TOMLINS ST BRIDGE", "SITE_TYPE": "POS", "STATUS": "OPERATIONAL", "lat": -36.7524129993206, "lon": 144.288514999933, "SIGNAL": "Y"}, {"OBJECTID": 45159, "SITE_NO": 2182, "SITE_NAME": "DONALD CAMERON/LINCOLN/THOMAS BRUNTON", "SITE_TYPE": "INT", "STATUS": "OPERATIONAL", "lat": -37.6305679991599, "lon": 144.928266999868, "SIGNAL": "Y"}, {"OBJECTID": 45160, "SITE_NO": 2813, "SITE_NAME": "COOPER/FREIGHT/REX", "SITE_TYPE": "INT", "STATUS": "OPERATIONAL", "lat": -37.6450669993421, "lon": 144.962813999664, "SIGNAL": "R"}, {"OBJECTID": 45161, "SITE_NO": 2059, "SITE_NAME": "CAIRNLEA/WOODBURN", "SITE_TYPE": "INT", "STATUS": "OPERATIONAL", "lat": -37.7631659988575, "lon": 144.789754999949, "SIGNAL": "R"}, {"OBJECTID": 45162, "SITE_NO": 3242, "SITE_NAME": "PLENTY/BUSH/DEVELOPMENT", "SITE_TYPE": "INT", "STATUS": "OPERATIONAL", "lat": -37.6562699992764, "lon": 145.080122000566, "SIGNAL": "G"}, {"OBJECTID": 45163, "SITE_NO": 2677, "SITE_NAME": "DUKE/SURREY", "SITE_TYPE": "INT", "STATUS": "OPERATIONAL", "lat": -37.7672839988538, "lon": 144.84934499993, "SIGNAL": "G"}, {"OBJECTID": 45164, "SITE_NO": 5659, "SITE_NAME": "PHE/MCCULLOCH", "SITE_TYPE": "INT", "STATUS": "OPERATIONAL", "lat": -37.8276829993053, "lon": 147.624405999604, "SIGNAL": "R"}, {"OBJECTID": 45165, "SITE_NO": 2893, "SITE_NAME": "MILLERS/BEURON", "SITE_TYPE": "INT", "STATUS": "OPERATIONAL", "lat": -37.8289169993297, "lon": 144.848636000029, "SIGNAL": "G"}, {"OBJECTID": 45166, "SITE_NO": 3524, "SITE_NAME": "RACECOURSE NR PIN OAK", "SITE_TYPE": "POS", "STATUS": "OPERATIONAL", "lat": -37.7882449992543, "lon": 144.93028400055, "SIGNAL": "R"}, {"OBJECTID": 45167, "SITE_NO": 3485, "SITE_NAME": "PFW NB RAMPS/KOROROIT CREEK", "SITE_TYPE": "INT", "STATUS": "OPERATIONAL", "lat": -37.844333998925, "lon": 144.783231000509, "SIGNAL": "G"}, {"OBJECTID": 45168, "SITE_NO": 509, "SITE_NAME": "MONASH FWY/TINKS", "SITE_TYPE": "INT", "STATUS": "OPERATIONAL", "lat": -38.0016459991667, "lon": 145.293147000205, "SIGNAL": "Y"}, {"OBJECTID": 45169, "SITE_NO": 398, "SITE_NAME": "STH GIPPS'D HWY/HUON PARK/WENTWORTH", "SITE_TYPE": "INT", "STATUS": "OPERATIONAL", "lat": -38.0741149992005, "lon": 145.271347999599, "SIGNAL": "R"}, {"OBJECTID": 45170, "SITE_NO": 5271, "SITE_NAME": "SAYERS/MARQUANDS", "SITE_TYPE": "INT", "STATUS": "OPERATIONAL", "lat": -37.8523329989301, "lon": 144.72687399963, "SIGNAL": "G"}, {"OBJECTID": 45171, "SITE_NO": 3723, "SITE_NAME": "MONASH/BLACKBURN RAMP SIGNALS IB", "SITE_TYPE": "RAMP MTR", "STATUS": "OPERATIONAL", "lat": -37.8947609994373, "lon": 145.1426630002, "SIGNAL": "R"}, {"OBJECTID": 45172, "SITE_NO": 5609, "SITE_NAME": "PHE NR PINE", "SITE_TYPE": "POS", "STATUS": "OPERATIONAL", "lat": -38.0964379993505, "lon": 147.068247999711, "SIGNAL": "G"}, {"OBJECTID": 45173, "SITE_NO": 391, "SITE_NAME": "STUD/CENTRE", "SITE_TYPE": "INT", "STATUS": "OPERATIONAL", "lat": -37.9022259987259, "lon": 145.23516599967, "SIGNAL": "G"}, {"OBJECTID": 45174, "SITE_NO": 756, "SITE_NAME": "MOOROODUC HWY/ROBINSONS", "SITE_TYPE": "INT", "STATUS": "OPERATIONAL", "lat": -38.1737279988376, "lon": 145.139249999662, "SIGNAL": "R"}, {"OBJECTID": 45175, "SITE_NO": 2792, "SITE_NAME": "DALTON NR DAVID", "SITE_TYPE": "POS", "STATUS": "OPERATIONAL", "lat": -37.6730549994434, "lon": 145.031103999551, "SIGNAL": "Y"}, {"OBJECTID": 45176, "SITE_NO": 1046, "SITE_NAME": "ROYAL NR IEVERS", "SITE_TYPE": "POS", "STATUS": "OPERATIONAL", "lat": -37.7821279988051, "lon": 144.95971199963, "SIGNAL": "Y"}, {"OBJECTID": 45177, "SITE_NO": 5109, "SITE_NAME": "VINES NR MARLO", "SITE_TYPE": "POS", "STATUS": "OPERATIONAL", "lat": -38.1205779986903, "lon": 144.328314000484, "SIGNAL": "G"}, {"OBJECTID": 45178, "SITE_NO": 5039, "SITE_NAME": "GHERINGHAP/MALOP/MERCER", "SITE_TYPE": "INT", "STATUS": "OPERATIONAL", "lat": -38.1465279986898, "lon": 144.358367999773, "SIGNAL": "R"}, {"OBJECTID": 45179, "SITE_NO": 2397, "SITE_NAME": "KINGSWAY/SOUTHERN LINK", "SITE_TYPE": "INT", "STATUS": "OPERATIONAL", "lat": -37.8278259994337, "lon": 144.962224000174, "SIGNAL": "G"}, {"OBJECTID": 45180, "SITE_NO": 303, "SITE_NAME": "HALLAM/CORAL/FORDHOLM", "SITE_TYPE": "INT", "STATUS": "OPERATIONAL", "lat": -38.0356789989813, "lon": 145.267158000063, "SIGNAL": "G"}, {"OBJECTID": 45181, "SITE_NO": 6827, "SITE_NAME": "PHW (RAGLAN PDE)/MORRISS", "SITE_TYPE": "INT", "STATUS": "OPERATIONAL", "lat": -38.3668109995518, "lon": 142.464041999598, "SIGNAL": "G"}, {"OBJECTID": 45182, "SITE_NO": 6828, "SITE_NAME": "PHW (RAGLAN PDE)/LAVEROCK", "SITE_TYPE": "INT", "STATUS": "OPERATIONAL", "lat": -38.3694559995405, "lon": 142.468519000068, "SIGNAL": "G"}, {"OBJECTID": 45183, "SITE_NO": 5231, "SITE_NAME": "SURF COAST HWY NR BEACH", "SITE_TYPE": "POS", "STATUS": "OPERATIONAL", "lat": -38.3266169989903, "lon": 144.317633999736, "SIGNAL": "Y"}, {"OBJECTID": 45184, "SITE_NO": 964, "SITE_NAME": "ABBOTTS/CLELANDS DEVELOPMENTS", "SITE_TYPE": "INT", "STATUS": "OPERATIONAL", "lat": -38.0332969990795, "lon": 145.225057000429, "SIGNAL": "Y"}, {"OBJECTID": 45185, "SITE_NO": 508, "SITE_NAME": "CLYDE/GREAVES/O'SHEA", "SITE_TYPE": "INT", "STATUS": "OPERATIONAL", "lat": -38.0598929993571, "lon": 145.338180000297, "SIGNAL": "R"}, {"OBJECTID": 45186, "SITE_NO": 5117, "SITE_NAME": "RYRIE NR JAMES", "SITE_TYPE": "POS", "STATUS": "OPERATIONAL", "lat": -38.1488139991998, "lon": 144.35802499946, "SIGNAL": "G"}, {"OBJECTID": 45187, "SITE_NO": 5118, "SITE_NAME": "RYRIE NR UNION", "SITE_TYPE": "POS", "STATUS": "OPERATIONAL", "lat": -38.149536999259, "lon": 144.360561000376, "SIGNAL": "R"}, {"OBJECTID": 45188, "SITE_NO": 5881, "SITE_NAME": "MIDLAND HWY SKIPTON/DARLING/DRUMMOND", "SITE_TYPE": "INT", "STATUS": "OPERATIONAL", "lat": -37.5756319989084, "lon": 143.844722999839, "SIGNAL": "Y"}, {"OBJECTID": 45189, "SITE_NO": 5119, "SITE_NAME": "MERCER NR GINN", "SITE_TYPE": "POS", "STATUS": "OPERATIONAL", "lat": -38.1394969987131, "lon": 144.354766000407, "SIGNAL": "R"}, {"OBJECTID": 45190, "SITE_NO": 5273, "SITE_NAME": "PFW/FORSYTH", "SITE_TYPE": "INT", "STATUS": "OPERATIONAL", "lat": -37.8752259990054, "lon": 144.737423, "SIGNAL": "G"}, {"OBJECTID": 45191, "SITE_NO": 2014, "SITE_NAME": "HIGH ST RD/TYNER", "SITE_TYPE": "INT", "STATUS": "OPERATIONAL", "lat": -37.8749799986672, "lon": 145.244812000464, "SIGNAL": "R"}, {"OBJECTID": 45192, "SITE_NO": 107, "SITE_NAME": "MAROONDAH/KALLAY/BRENTNALL", "SITE_TYPE": "INT", "STATUS": "OPERATIONAL", "lat": -37.7934099991377, "lon": 145.260270999499, "SIGNAL": "Y"}, {"OBJECTID": 45193, "SITE_NO": 6814, "SITE_NAME": "HOPKINS HWY / HAYLEY / NORTHPOINT SC", "SITE_TYPE": "INT", "STATUS": "OPERATIONAL", "lat": -38.3673349988359, "lon": 142.493489999487, "SIGNAL": "R"}, {"OBJECTID": 45194, "SITE_NO": 4638, "SITE_NAME": "BOUNDARY / LOWER DANDENONG", "SITE_TYPE": "POS", "STATUS": "OPERATIONAL", "lat": -37.9861629989502, "lon": 145.109326000342, "SIGNAL": "G"}, {"OBJECTID": 45195, "SITE_NO": 4438, "SITE_NAME": "LITTLE CHAPEL NR PRINCES", "SITE_TYPE": "FLASH PX", "STATUS": "OPERATIONAL", "lat": -37.8493869993707, "lon": 144.994785000311, "SIGNAL": "Y"}, {"OBJECTID": 45196, "SITE_NO": 4442, "SITE_NAME": "BRAY NR GREY", "SITE_TYPE": "FLASH PX", "STATUS": "OPERATIONAL", "lat": -37.8469499987367, "lon": 144.994758000436, "SIGNAL": "Y"}, {"OBJECTID": 45197, "SITE_NO": 6290, "SITE_NAME": "MIDLAND HWY/HOWARD", "SITE_TYPE": "INT", "STATUS": "OPERATIONAL", "lat": -36.705154999329, "lon": 144.316158000288, "SIGNAL": "R"}, {"OBJECTID": 45198, "SITE_NO": 3741, "SITE_NAME": "PLENTY/MT COOPER", "SITE_TYPE": "INT", "STATUS": "OPERATIONAL", "lat": -37.7044739988658, "lon": 145.05561600012, "SIGNAL": "Y"}, {"OBJECTID": 45199, "SITE_NO": 1011, "SITE_NAME": "ASCOT VALE/KENT", "SITE_TYPE": "INT", "STATUS": "OPERATIONAL", "lat": -37.7799489990335, "lon": 144.922660000483, "SIGNAL": "Y"}, {"OBJECTID": 45200, "SITE_NO": 2673, "SITE_NAME": "GLENGALA BTN SIMMIE & OLDFIELD", "SITE_TYPE": "FLASH PX", "STATUS": "OPERATIONAL", "lat": -37.7904269994925, "lon": 144.817196000371, "SIGNAL": "G"}, {"OBJECTID": 45201, "SITE_NO": 6235, "SITE_NAME": "LODDON VALLEY/SANDHURST", "SITE_TYPE": "INT", "STATUS": "OPERATIONAL", "lat": -36.7258769991371, "lon": 144.258692000513, "SIGNAL": "G"}, {"OBJECTID": 45202, "SITE_NO": 4150, "SITE_NAME": "BURNLEY/BARKLY/CITYLINK OFF RAMPS", "SITE_TYPE": "INT", "STATUS": "OPERATIONAL", "lat": -37.8302779987311, "lon": 145.006375999671, "SIGNAL": "Y"}, {"OBJECTID": 45203, "SITE_NO": 803, "SITE_NAME": "WELLINGTON/TAYLORS", "SITE_TYPE": "INT", "STATUS": "OPERATIONAL", "lat": -37.9265499990048, "lon": 145.244148999517, "SIGNAL": "Y"}, {"OBJECTID": 45204, "SITE_NO": 4558, "SITE_NAME": "OLYMPIC BLVD(SWAN)/TRAM ACCESS", "SITE_TYPE": "INT", "STATUS": "OPERATIONAL", "lat": -37.824341999349, "lon": 144.986708999841, "SIGNAL": "G"}, {"OBJECTID": 45205, "SITE_NO": 2193, "SITE_NAME": "DONNYBROOK/HUME FWY NB RAMPS", "SITE_TYPE": "INT", "STATUS": "OPERATIONAL", "lat": -37.5394769992302, "lon": 144.945480999605, "SIGNAL": "Y"}, {"OBJECTID": 45206, "SITE_NO": 5164, "SITE_NAME": "BREAKWATER/FELLMONGERS", "SITE_TYPE": "INT", "STATUS": "OPERATIONAL", "lat": -38.1793299986718, "lon": 144.367589999908, "SIGNAL": "G"}, {"OBJECTID": 45207, "SITE_NO": 507, "SITE_NAME": "NEPEAN HWY/STATION", "SITE_TYPE": "INT", "STATUS": "OPERATIONAL", "lat": -38.0709569989871, "lon": 145.121347999904, "SIGNAL": "R"}, {"OBJECTID": 45208, "SITE_NO": 3047, "SITE_NAME": "BUCKLEY/DICKSON", "SITE_TYPE": "INT", "STATUS": "OPERATIONAL", "lat": -37.7522189987431, "lon": 144.874065000091, "SIGNAL": "G"}, {"OBJECTID": 45209, "SITE_NO": 6081, "SITE_NAME": "GVH/PINE/BRAUMAN", "SITE_TYPE": "INT", "STATUS": "OPERATIONAL", "lat": -36.3574599990395, "lon": 145.402228000436, "SIGNAL": "Y"}, {"OBJECTID": 45210, "SITE_NO": 2352, "SITE_NAME": "NEPEAN HWY NR LATROBE", "SITE_TYPE": "POS", "STATUS": "OPERATIONAL", "lat": -37.9750049990323, "lon": 145.065273999529, "SIGNAL": "Y"}, {"OBJECTID": 45211, "SITE_NO": 5610, "SITE_NAME": "PHE/SALE-MAFFRA", "SITE_TYPE": "INT", "STATUS": "OPERATIONAL", "lat": -38.093563999425, "lon": 147.06880999945, "SIGNAL": "Y"}, {"OBJECTID": 45212, "SITE_NO": 3917, "SITE_NAME": "CHAPEL/PALERMO", "SITE_TYPE": "INT", "STATUS": "OPERATIONAL", "lat": -37.8416319987754, "lon": 144.995189999448, "SIGNAL": "Y"}, {"OBJECTID": 45213, "SITE_NO": 2519, "SITE_NAME": "PHW/CEMETERY", "SITE_TYPE": "INT", "STATUS": "OPERATIONAL", "lat": -37.8138159987431, "lon": 144.85983400042, "SIGNAL": "R"}, {"OBJECTID": 45214, "SITE_NO": 3644, "SITE_NAME": "KINGSTON/BALL/ST ANDREWS", "SITE_TYPE": "INT", "STATUS": "OPERATIONAL", "lat": -37.9539469987805, "lon": 145.083548999783, "SIGNAL": "G"}, {"OBJECTID": 45215, "SITE_NO": 6451, "SITE_NAME": "CALDER HWY/KARADOC", "SITE_TYPE": "INT", "STATUS": "OPERATIONAL", "lat": -34.2314169992389, "lon": 142.165885999542, "SIGNAL": "G"}, {"OBJECTID": 45216, "SITE_NO": 4108, "SITE_NAME": "GLEN EIRA NR ST GEORGES", "SITE_TYPE": "POS", "STATUS": "OPERATIONAL", "lat": -37.8777409987372, "lon": 145.004653000165, "SIGNAL": "Y"}, {"OBJECTID": 45217, "SITE_NO": 2464, "SITE_NAME": "JOHNSTON O/H LANE E TRENERRY 14", "SITE_TYPE": "OH LANE", "STATUS": "OPERATIONAL", "lat": -37.8005449991581, "lon": 145.000155000282, "SIGNAL": "G"}, {"OBJECTID": 45218, "SITE_NO": 6075, "SITE_NAME": "GVH (WYNDHAM) / VAUGHAN", "SITE_TYPE": "INT", "STATUS": "OPERATIONAL", "lat": -36.3831459987059, "lon": 145.398849999948, "SIGNAL": "Y"}, {"OBJECTID": 45219, "SITE_NO": 2589, "SITE_NAME": "HUME DRIVE/COPPERFIELD", "SITE_TYPE": "INT", "STATUS": "OPERATIONAL", "lat": -37.7100609993861, "lon": 144.771016999495, "SIGNAL": "R"}, {"OBJECTID": 45220, "SITE_NO": 3759, "SITE_NAME": "NORTH NR HALL", "SITE_TYPE": "FLASH PX", "STATUS": "OPERATIONAL", "lat": -37.8448009989723, "lon": 144.884737999702, "SIGNAL": "G"}, {"OBJECTID": 45221, "SITE_NO": 1153, "SITE_NAME": "WHEELER NR WILSON", "SITE_TYPE": "FLASH PX", "STATUS": "OPERATIONAL", "lat": -38.0302399989481, "lon": 145.348147999639, "SIGNAL": "G"}, {"OBJECTID": 45222, "SITE_NO": 1155, "SITE_NAME": "HAWTHORN NR AUTUMN", "SITE_TYPE": "FLASH PX", "STATUS": "OPERATIONAL", "lat": -37.9946169995099, "lon": 145.240272000418, "SIGNAL": "Y"}, {"OBJECTID": 45223, "SITE_NO": 1102, "SITE_NAME": "CANTERBURY/EASTLINK", "SITE_TYPE": "INT", "STATUS": "OPERATIONAL", "lat": -37.8323839990689, "lon": 145.216982999433, "SIGNAL": "Y"}, {"OBJECTID": 45224, "SITE_NO": 1103, "SITE_NAME": "BURWOOD HWY/EASTLINK", "SITE_TYPE": "INT", "STATUS": "OPERATIONAL", "lat": -37.8612089990961, "lon": 145.211129999758, "SIGNAL": "G"}, {"OBJECTID": 45225, "SITE_NO": 1104, "SITE_NAME": "BORONIA/EASTLINK", "SITE_TYPE": "INT", "STATUS": "OPERATIONAL", "lat": -37.8461749986876, "lon": 145.216330999792, "SIGNAL": "Y"}, {"OBJECTID": 45226, "SITE_NO": 1123, "SITE_NAME": "DORSET/CLIPSAL", "SITE_TYPE": "INT", "STATUS": "OPERATIONAL", "lat": -37.8320979995404, "lon": 145.287316999613, "SIGNAL": "G"}, {"OBJECTID": 45227, "SITE_NO": 1107, "SITE_NAME": "FERNTREE GULLY/EASTLINK", "SITE_TYPE": "INT", "STATUS": "OPERATIONAL", "lat": -37.9035419995187, "lon": 145.214385000045, "SIGNAL": "Y"}, {"OBJECTID": 45228, "SITE_NO": 1181, "SITE_NAME": "HEATHERTON/LINK", "SITE_TYPE": "INT", "STATUS": "OPERATIONAL", "lat": -37.9679199989572, "lon": 145.197495000078, "SIGNAL": "G"}, {"OBJECTID": 45229, "SITE_NO": 5218, "SITE_NAME": "BELLARINE HWY NR NELSON", "SITE_TYPE": "POS", "STATUS": "OPERATIONAL", "lat": -38.171402998688, "lon": 144.394306000269, "SIGNAL": "G"}, {"OBJECTID": 45230, "SITE_NO": 5219, "SITE_NAME": "CORIO-WAURN PONDS(SETTLEMENT) NR FRANCIS", "SITE_TYPE": "POS", "STATUS": "OPERATIONAL", "lat": -38.181856999118, "lon": 144.347271999846, "SIGNAL": "Y"}, {"OBJECTID": 45231, "SITE_NO": 2635, "SITE_NAME": "MONASH NR WHITTY", "SITE_TYPE": "POS", "STATUS": "OPERATIONAL", "lat": -37.7890009987069, "lon": 144.835906000063, "SIGNAL": "G"}, {"OBJECTID": 45232, "SITE_NO": 886, "SITE_NAME": "MAROONDAH NR RYLAND", "SITE_TYPE": "POS", "STATUS": "OPERATIONAL", "lat": -37.7899889987966, "lon": 145.266233999432, "SIGNAL": "Y"}, {"OBJECTID": 45233, "SITE_NO": 2636, "SITE_NAME": "MELTON HWY/VERONA", "SITE_TYPE": "INT", "STATUS": "OPERATIONAL", "lat": -37.7007369991471, "lon": 144.796278999477, "SIGNAL": "Y"}, {"OBJECTID": 45234, "SITE_NO": 2637, "SITE_NAME": "MELTON HWY/PARMELIA", "SITE_TYPE": "INT", "STATUS": "OPERATIONAL", "lat": -37.6985789991998, "lon": 144.786380000287, "SIGNAL": "Y"}, {"OBJECTID": 45235, "SITE_NO": 2638, "SITE_NAME": "MELTON HWY/KINGS", "SITE_TYPE": "INT", "STATUS": "OPERATIONAL", "lat": -37.6974509989151, "lon": 144.781239000192, "SIGNAL": "G"}, {"OBJECTID": 45236, "SITE_NO": 2639, "SITE_NAME": "MELTON HWY/SHOPPING CENTRE ENT 2", "SITE_TYPE": "INT", "STATUS": "OPERATIONAL", "lat": -37.6968179991557, "lon": 144.778268000376, "SIGNAL": "R"}, {"OBJECTID": 45237, "SITE_NO": 2640, "SITE_NAME": "MELTON HWY/MCCUBBIN", "SITE_TYPE": "INT", "STATUS": "OPERATIONAL", "lat": -37.6958819990671, "lon": 144.774555999819, "SIGNAL": "G"}, {"OBJECTID": 45238, "SITE_NO": 6315, "SITE_NAME": "NORTHERN HWY BTN FRASER/GILLIES", "SITE_TYPE": "FLASH PX", "STATUS": "OPERATIONAL", "lat": -36.3617759991922, "lon": 144.699465999574, "SIGNAL": "Y"}, {"OBJECTID": 45239, "SITE_NO": 4729, "SITE_NAME": "PICKLES/LIARDET/RICHARDSON", "SITE_TYPE": "INT", "STATUS": "OPERATIONAL", "lat": -37.8410129990319, "lon": 144.946529999814, "SIGNAL": "R"}, {"OBJECTID": 45240, "SITE_NO": 3525, "SITE_NAME": "FERGUSON BTW LYONS/BATH", "SITE_TYPE": "FLASH PX", "STATUS": "OPERATIONAL", "lat": -37.8587379993046, "lon": 144.896361999621, "SIGNAL": "G"}, {"OBJECTID": 45241, "SITE_NO": 4528, "SITE_NAME": "BATMAN/MELB PARK NTH ACCESS", "SITE_TYPE": "INT", "STATUS": "OPERATIONAL", "lat": -37.8184989989882, "lon": 144.975676000265, "SIGNAL": "Y"}, {"OBJECTID": 45242, "SITE_NO": 4529, "SITE_NAME": "MELBOURNE PARK NTH ACCESS/FED SQ ACCESS", "SITE_TYPE": "INT", "STATUS": "OPERATIONAL", "lat": -37.8184059994474, "lon": 144.976385000459, "SIGNAL": "R"}, {"OBJECTID": 45243, "SITE_NO": 5114, "SITE_NAME": "BARRABOOL/BELLE VUE", "SITE_TYPE": "INT", "STATUS": "OPERATIONAL", "lat": -38.1715159993393, "lon": 144.324397000069, "SIGNAL": "R"}, {"OBJECTID": 45244, "SITE_NO": 572, "SITE_NAME": "WARBURTON/HEALESVILLE-KOO WEE RUP", "SITE_TYPE": "INT", "STATUS": "OPERATIONAL", "lat": -37.7803059987485, "lon": 145.531403999989, "SIGNAL": "G"}, {"OBJECTID": 45245, "SITE_NO": 530, "SITE_NAME": "MONASH/PHE", "SITE_TYPE": "INT", "STATUS": "OPERATIONAL", "lat": -38.0281799987439, "lon": 145.321917000455, "SIGNAL": "R"}, {"OBJECTID": 45246, "SITE_NO": 5027, "SITE_NAME": "MYERS/SWANSTON", "SITE_TYPE": "INT", "STATUS": "OPERATIONAL", "lat": -38.1535079991426, "lon": 144.366359999457, "SIGNAL": "G"}, {"OBJECTID": 45247, "SITE_NO": 517, "SITE_NAME": "BALLARTO NR GREENWOOD", "SITE_TYPE": "POS", "STATUS": "OPERATIONAL", "lat": -38.1155589991172, "lon": 145.180801999939, "SIGNAL": "G"}, {"OBJECTID": 45248, "SITE_NO": 3868, "SITE_NAME": "BRIDGE NR VERITY", "SITE_TYPE": "POS", "STATUS": "OPERATIONAL", "lat": -37.8178489994401, "lon": 144.992663999459, "SIGNAL": "Y"}, {"OBJECTID": 45249, "SITE_NO": 962, "SITE_NAME": "WESTALL/ROSEBANK", "SITE_TYPE": "INT", "STATUS": "OPERATIONAL", "lat": -37.9411469986939, "lon": 145.140311000463, "SIGNAL": "R"}, {"OBJECTID": 45250, "SITE_NO": 3664, "SITE_NAME": "TOORONGA NR BETHUNE", "SITE_TYPE": "POS", "STATUS": "OPERATIONAL", "lat": -37.8420949989057, "lon": 145.045575000176, "SIGNAL": "R"}, {"OBJECTID": 45251, "SITE_NO": 2181, "SITE_NAME": "HUME/AUSTRAK", "SITE_TYPE": "INT", "STATUS": "OPERATIONAL", "lat": -37.6380509990564, "lon": 144.950588000155, "SIGNAL": "G"}, {"OBJECTID": 45252, "SITE_NO": 3145, "SITE_NAME": "CENTRE DANDENONG/CHIFLEY", "SITE_TYPE": "INT", "STATUS": "OPERATIONAL", "lat": -37.9719679993453, "lon": 145.106965999661, "SIGNAL": "R"}, {"OBJECTID": 45253, "SITE_NO": 595, "SITE_NAME": "GREENS/SOUTH PARK DEVELOPMENT ACCESS", "SITE_TYPE": "INT", "STATUS": "OPERATIONAL", "lat": -38.0130159990158, "lon": 145.201757000465, "SIGNAL": "R"}, {"OBJECTID": 45254, "SITE_NO": 6654, "SITE_NAME": "PRINCES/VINCENT", "SITE_TYPE": "INT", "STATUS": "OPERATIONAL", "lat": -38.2398059991682, "lon": 146.408926000242, "SIGNAL": "G"}, {"OBJECTID": 45255, "SITE_NO": 3949, "SITE_NAME": "MARTIN NR SPINK", "SITE_TYPE": "FLASH PX", "STATUS": "OPERATIONAL", "lat": -37.8974989992588, "lon": 145.004787000385, "SIGNAL": "G"}, {"OBJECTID": 45256, "SITE_NO": 3188, "SITE_NAME": "Soldiers Rd/ Viewbright Rd/ Skylark Blvd", "SITE_TYPE": "INT", "STATUS": "OPERATIONAL", "lat": -38.0816379991481, "lon": 145.362840999457, "SIGNAL": "G"}, {"OBJECTID": 45257, "SITE_NO": 3147, "SITE_NAME": "LOWER DANDENONG/WOODLANDS", "SITE_TYPE": "INT", "STATUS": "OPERATIONAL", "lat": -37.9876739991952, "lon": 145.11788500033, "SIGNAL": "R"}, {"OBJECTID": 45258, "SITE_NO": 767, "SITE_NAME": "DORSET/CHANDLER", "SITE_TYPE": "INT", "STATUS": "OPERATIONAL", "lat": -37.8597839988727, "lon": 145.285771999768, "SIGNAL": "R"}, {"OBJECTID": 45259, "SITE_NO": 3394, "SITE_NAME": "MONASH ON RAMP NR PUNT", "SITE_TYPE": "POS", "STATUS": "OPERATIONAL", "lat": -37.8288649989029, "lon": 144.98813400028, "SIGNAL": "R"}, {"OBJECTID": 45260, "SITE_NO": 316, "SITE_NAME": "HIGH NR VILLAGE", "SITE_TYPE": "POS", "STATUS": "OPERATIONAL", "lat": -37.7822109991112, "lon": 145.11007799973, "SIGNAL": "G"}, {"OBJECTID": 45261, "SITE_NO": 2043, "SITE_NAME": "DONCASTER/WHITTENS", "SITE_TYPE": "INT", "STATUS": "OPERATIONAL", "lat": -37.7871909992909, "lon": 145.132725999539, "SIGNAL": "Y"}, {"OBJECTID": 45262, "SITE_NO": 6069, "SITE_NAME": "ARCHER/WILMOT/POPLAR", "SITE_TYPE": "INT", "STATUS": "OPERATIONAL", "lat": -36.3990329989022, "lon": 145.409574999846, "SIGNAL": "R"}, {"OBJECTID": 45263, "SITE_NO": 365, "SITE_NAME": "HIGH ST RD/CAPITAL", "SITE_TYPE": "INT", "STATUS": "OPERATIONAL", "lat": -37.8765029986985, "lon": 145.185861999435, "SIGNAL": "R"}, {"OBJECTID": 45264, "SITE_NO": 490, "SITE_NAME": "GLADSTONE/HALTON", "SITE_TYPE": "INT", "STATUS": "OPERATIONAL", "lat": -37.9566449987245, "lon": 145.207326000043, "SIGNAL": "Y"}, {"OBJECTID": 45265, "SITE_NO": 966, "SITE_NAME": "POWER NR MONASH FWY", "SITE_TYPE": "POS", "STATUS": "OPERATIONAL", "lat": -37.9774469993019, "lon": 145.241384999846, "SIGNAL": "G"}, {"OBJECTID": 45266, "SITE_NO": 2595, "SITE_NAME": "MELTON HWY/GOURLAY", "SITE_TYPE": "INT", "STATUS": "OPERATIONAL", "lat": -37.691937998686, "lon": 144.744229999919, "SIGNAL": "Y"}, {"OBJECTID": 45267, "SITE_NO": 2050, "SITE_NAME": "MCINTYRE/WHITEHILL", "SITE_TYPE": "INT", "STATUS": "OPERATIONAL", "lat": -37.7545969995113, "lon": 144.832818999854, "SIGNAL": "G"}, {"OBJECTID": 45268, "SITE_NO": 2808, "SITE_NAME": "CHILDS/PRINCE OF WALES", "SITE_TYPE": "INT", "STATUS": "OPERATIONAL", "lat": -37.6624899993887, "lon": 145.047362999634, "SIGNAL": "Y"}, {"OBJECTID": 45269, "SITE_NO": 2809, "SITE_NAME": "CHILDS/BETULA", "SITE_TYPE": "INT", "STATUS": "OPERATIONAL", "lat": -37.667952999157, "lon": 145.060683000477, "SIGNAL": "Y"}, {"OBJECTID": 45270, "SITE_NO": 3241, "SITE_NAME": "VICTORIA/DUNDAS", "SITE_TYPE": "INT", "STATUS": "OPERATIONAL", "lat": -37.7537229988194, "lon": 145.014113999543, "SIGNAL": "Y"}, {"OBJECTID": 45271, "SITE_NO": 491, "SITE_NAME": "WELLINGTON/COLES MYER HOUSE", "SITE_TYPE": "INT", "STATUS": "OPERATIONAL", "lat": -37.9189019988283, "lon": 145.160413999922, "SIGNAL": "Y"}, {"OBJECTID": 45272, "SITE_NO": 394, "SITE_NAME": "PHE/DOHERTY", "SITE_TYPE": "INT", "STATUS": "OPERATIONAL", "lat": -38.0630009987473, "lon": 145.460130000424, "SIGNAL": "G"}, {"OBJECTID": 45273, "SITE_NO": 4512, "SITE_NAME": "ELIZABETH/A'BECKETT", "SITE_TYPE": "INT", "STATUS": "OPERATIONAL", "lat": -37.8092499987412, "lon": 144.960867000424, "SIGNAL": "G"}, {"OBJECTID": 45274, "SITE_NO": 4514, "SITE_NAME": "KING/ROSSLYN/CHETWYND", "SITE_TYPE": "INT", "STATUS": "OPERATIONAL", "lat": -37.8081629993925, "lon": 144.951685999737, "SIGNAL": "G"}, {"OBJECTID": 45275, "SITE_NO": 4517, "SITE_NAME": "KING/DUDLEY", "SITE_TYPE": "INT", "STATUS": "OPERATIONAL", "lat": -37.8092389995562, "lon": 144.952365000276, "SIGNAL": "G"}, {"OBJECTID": 45276, "SITE_NO": 4518, "SITE_NAME": "DRYBURGH/SPENCER/MILLER", "SITE_TYPE": "INT", "STATUS": "OPERATIONAL", "lat": -37.8054409993566, "lon": 144.94305299949, "SIGNAL": "G"}, {"OBJECTID": 45277, "SITE_NO": 4519, "SITE_NAME": "SPENCER/ABBOTSFORD", "SITE_TYPE": "INT", "STATUS": "OPERATIONAL", "lat": -37.8061459991063, "lon": 144.944844999968, "SIGNAL": "G"}, {"OBJECTID": 45278, "SITE_NO": 4520, "SITE_NAME": "SPENCER/HAWKE", "SITE_TYPE": "INT", "STATUS": "OPERATIONAL", "lat": -37.8070909991462, "lon": 144.946967999632, "SIGNAL": "R"}, {"OBJECTID": 45279, "SITE_NO": 4521, "SITE_NAME": "SPENCER/DUDLEY", "SITE_TYPE": "INT", "STATUS": "OPERATIONAL", "lat": -37.8101329994942, "lon": 144.949987000453, "SIGNAL": "R"}, {"OBJECTID": 45280, "SITE_NO": 4522, "SITE_NAME": "DUDLEY/ADDERLEY", "SITE_TYPE": "INT", "STATUS": "OPERATIONAL", "lat": -37.8109559991469, "lon": 144.947823000255, "SIGNAL": "R"}, {"OBJECTID": 45281, "SITE_NO": 4523, "SITE_NAME": "SWANSTON/FRANKLIN", "SITE_TYPE": "INT", "STATUS": "OPERATIONAL", "lat": -37.8074649989393, "lon": 144.962837999679, "SIGNAL": "G"}, {"OBJECTID": 45282, "SITE_NO": 4524, "SITE_NAME": "KING/HAWKE", "SITE_TYPE": "INT", "STATUS": "OPERATIONAL", "lat": -37.8055049994986, "lon": 144.948655000511, "SIGNAL": "G"}, {"OBJECTID": 45283, "SITE_NO": 4525, "SITE_NAME": "FLINDERS EXT/WORLD TRADE CENTRE ACCESS", "SITE_TYPE": "POS", "STATUS": "OPERATIONAL", "lat": -37.8212339994295, "lon": 144.954608000187, "SIGNAL": "G"}, {"OBJECTID": 45284, "SITE_NO": 4531, "SITE_NAME": "ST KILDA NR CONCERT HALL", "SITE_TYPE": "POS", "STATUS": "OPERATIONAL", "lat": -37.8196209987435, "lon": 144.968433999508, "SIGNAL": "G"}, {"OBJECTID": 45285, "SITE_NO": 4534, "SITE_NAME": "ST KILDA NR COVENTRY", "SITE_TYPE": "POS", "STATUS": "OPERATIONAL", "lat": -37.8282519990059, "lon": 144.971361999987, "SIGNAL": "Y"}, {"OBJECTID": 45286, "SITE_NO": 4535, "SITE_NAME": "ST KILDA NR DORCAS", "SITE_TYPE": "POS", "STATUS": "OPERATIONAL", "lat": -37.830285999136, "lon": 144.971337000535, "SIGNAL": "Y"}, {"OBJECTID": 45287, "SITE_NO": 4536, "SITE_NAME": "ST KILDA/PARK/DOMAIN", "SITE_TYPE": "INT", "STATUS": "OPERATIONAL", "lat": -37.8324419991832, "lon": 144.971923000049, "SIGNAL": "R"}, {"OBJECTID": 45288, "SITE_NO": 4537, "SITE_NAME": "COMMERCIAL/IZETT", "SITE_TYPE": "INT", "STATUS": "OPERATIONAL", "lat": -37.8466339989569, "lon": 144.992351999787, "SIGNAL": "R"}, {"OBJECTID": 45289, "SITE_NO": 4538, "SITE_NAME": "ST KILDA/KINGSWAY", "SITE_TYPE": "INT", "STATUS": "OPERATIONAL", "lat": -37.8362179987005, "lon": 144.975537999784, "SIGNAL": "Y"}, {"OBJECTID": 45290, "SITE_NO": 4463, "SITE_NAME": "FLEMINGTON/ABBOTSFORD", "SITE_TYPE": "INT", "STATUS": "OPERATIONAL", "lat": -37.7936149989483, "lon": 144.94745299998, "SIGNAL": "G"}, {"OBJECTID": 45291, "SITE_NO": 4464, "SITE_NAME": "FLEMINGTON NR CHILDREN'S HOSPITAL", "SITE_TYPE": "POS", "STATUS": "OPERATIONAL", "lat": -37.7958099990646, "lon": 144.950209000121, "SIGNAL": "Y"}, {"OBJECTID": 45292, "SITE_NO": 4465, "SITE_NAME": "FLEMINGTON/GATEHOUSE/HARKER", "SITE_TYPE": "INT", "STATUS": "OPERATIONAL", "lat": -37.7965959993168, "lon": 144.951197000313, "SIGNAL": "R"}, {"OBJECTID": 45293, "SITE_NO": 4466, "SITE_NAME": "FLEMINGTON/GRATTAN/WRECKYN", "SITE_TYPE": "INT", "STATUS": "OPERATIONAL", "lat": -37.7996519987028, "lon": 144.955033999916, "SIGNAL": "G"}, {"OBJECTID": 45294, "SITE_NO": 4467, "SITE_NAME": "ELLIOT/TRAMWAY CROSSING", "SITE_TYPE": "INT", "STATUS": "OPERATIONAL", "lat": -37.7883529989884, "lon": 144.949757999892, "SIGNAL": "R"}, {"OBJECTID": 45295, "SITE_NO": 4468, "SITE_NAME": "FLEMINGTON NR PARK", "SITE_TYPE": "POS", "STATUS": "OPERATIONAL", "lat": -37.7975989991532, "lon": 144.952456000174, "SIGNAL": "G"}, {"OBJECTID": 45296, "SITE_NO": 4469, "SITE_NAME": "RACECOURSE NR CROWN", "SITE_TYPE": "POS", "STATUS": "OPERATIONAL", "lat": -37.7874189990247, "lon": 144.922122000031, "SIGNAL": "G"}, {"OBJECTID": 45297, "SITE_NO": 4470, "SITE_NAME": "MT ALEXANDER/MOOLTAN", "SITE_TYPE": "INT", "STATUS": "OPERATIONAL", "lat": -37.7841079995056, "lon": 144.937138999935, "SIGNAL": "R"}, {"OBJECTID": 45298, "SITE_NO": 4471, "SITE_NAME": "MT ALEXANDER/WELLINGTON", "SITE_TYPE": "INT", "STATUS": "OPERATIONAL", "lat": -37.7811729994556, "lon": 144.932541000061, "SIGNAL": "Y"}, {"OBJECTID": 45299, "SITE_NO": 4472, "SITE_NAME": "RACECOURSE/EASTWOOD", "SITE_TYPE": "INT", "STATUS": "OPERATIONAL", "lat": -37.7881579994648, "lon": 144.929483000377, "SIGNAL": "R"}, {"OBJECTID": 45300, "SITE_NO": 4480, "SITE_NAME": "MACAULAY/EPSOM/KENSINGTON", "SITE_TYPE": "INT", "STATUS": "OPERATIONAL", "lat": -37.7941389986788, "lon": 144.927698999714, "SIGNAL": "G"}, {"OBJECTID": 45301, "SITE_NO": 4481, "SITE_NAME": "MACAULAY NR BELLAIR", "SITE_TYPE": "POS", "STATUS": "OPERATIONAL", "lat": -37.7944409993448, "lon": 144.930176000524, "SIGNAL": "Y"}, {"OBJECTID": 45302, "SITE_NO": 4482, "SITE_NAME": "DYNON/KENSINGTON", "SITE_TYPE": "INT", "STATUS": "OPERATIONAL", "lat": -37.8015149987369, "lon": 144.914853999682, "SIGNAL": "R"}, {"OBJECTID": 45303, "SITE_NO": 4483, "SITE_NAME": "DYNON/LLOYD", "SITE_TYPE": "INT", "STATUS": "OPERATIONAL", "lat": -37.8030859988101, "lon": 144.929160999613, "SIGNAL": "Y"}, {"OBJECTID": 45304, "SITE_NO": 4484, "SITE_NAME": "MACAULAY/STUBBS", "SITE_TYPE": "INT", "STATUS": "OPERATIONAL", "lat": -37.7949749994442, "lon": 144.93486000001, "SIGNAL": "R"}, {"OBJECTID": 45305, "SITE_NO": 4485, "SITE_NAME": "MACAULAY NR LANGFORD", "SITE_TYPE": "FLASH PX", "STATUS": "OPERATIONAL", "lat": -37.7951769987055, "lon": 144.936623999947, "SIGNAL": "R"}, {"OBJECTID": 45306, "SITE_NO": 4490, "SITE_NAME": "BOUNDARY/MACAULAY", "SITE_TYPE": "INT", "STATUS": "OPERATIONAL", "lat": -37.7954329995579, "lon": 144.938870999713, "SIGNAL": "Y"}, {"OBJECTID": 45307, "SITE_NO": 4492, "SITE_NAME": "ARDEN/DRYBURGH/MACAULAY", "SITE_TYPE": "INT", "STATUS": "OPERATIONAL", "lat": -37.8003009993688, "lon": 144.943978000304, "SIGNAL": "Y"}, {"OBJECTID": 45308, "SITE_NO": 4493, "SITE_NAME": "ARDEN/ABBOTSFORD", "SITE_TYPE": "INT", "STATUS": "OPERATIONAL", "lat": -37.8005279992297, "lon": 144.94590099994, "SIGNAL": "R"}, {"OBJECTID": 45309, "SITE_NO": 5084, "SITE_NAME": "THOMPSON NR VISTULA", "SITE_TYPE": "POS", "STATUS": "OPERATIONAL", "lat": -38.113437998893, "lon": 144.342888999844, "SIGNAL": "R"}, {"OBJECTID": 45310, "SITE_NO": 5085, "SITE_NAME": "THOMPSON/VICTORIA", "SITE_TYPE": "INT", "STATUS": "OPERATIONAL", "lat": -38.1217659988143, "lon": 144.341271000378, "SIGNAL": "G"}, {"OBJECTID": 45311, "SITE_NO": 5086, "SITE_NAME": "SURF COAST HWY NR CHERYL", "SITE_TYPE": "POS", "STATUS": "OPERATIONAL", "lat": -38.1882589988536, "lon": 144.343763000228, "SIGNAL": "R"}, {"OBJECTID": 45312, "SITE_NO": 5087, "SITE_NAME": "SURF COAST HWY/MARSHALLTOWN", "SITE_TYPE": "INT", "STATUS": "OPERATIONAL", "lat": -38.1956689991943, "lon": 144.342407999472, "SIGNAL": "G"}, {"OBJECTID": 45313, "SITE_NO": 5089, "SITE_NAME": "RYRIE/GARDEN", "SITE_TYPE": "INT", "STATUS": "OPERATIONAL", "lat": -38.1529379994118, "lon": 144.372346000216, "SIGNAL": "R"}, {"OBJECTID": 45314, "SITE_NO": 5194, "SITE_NAME": "BELLARINE HWY/CHRISTIES RD/CLAREMONT DR", "SITE_TYPE": "INT", "STATUS": "OPERATIONAL", "lat": -38.1914469995052, "lon": 144.473448000006, "SIGNAL": "G"}, {"OBJECTID": 45315, "SITE_NO": 5193, "SITE_NAME": "BELLARINE HWY/KENSINGTON", "SITE_TYPE": "INT", "STATUS": "OPERATIONAL", "lat": -38.1891799991603, "lon": 144.464290000014, "SIGNAL": "Y"}, {"OBJECTID": 45316, "SITE_NO": 5192, "SITE_NAME": "BELLARINE HWY(ORMOND RD)/HUMBLE", "SITE_TYPE": "INT", "STATUS": "OPERATIONAL", "lat": -38.1621169990461, "lon": 144.378231999856, "SIGNAL": "R"}, {"OBJECTID": 45317, "SITE_NO": 5083, "SITE_NAME": "SURF COAST HWY/HEYERS", "SITE_TYPE": "INT", "STATUS": "OPERATIONAL", "lat": -38.2085799993248, "lon": 144.33997099998, "SIGNAL": "R"}, {"OBJECTID": 45318, "SITE_NO": 4657, "SITE_NAME": "HIGH NR LAWRY", "SITE_TYPE": "POS", "STATUS": "OPERATIONAL", "lat": -37.7704249993422, "lon": 144.99879600044, "SIGNAL": "Y"}, {"OBJECTID": 45319, "SITE_NO": 598, "SITE_NAME": "PHE/VICTOR", "SITE_TYPE": "INT", "STATUS": "OPERATIONAL", "lat": -38.0271489993359, "lon": 145.312650000316, "SIGNAL": "Y"}, {"OBJECTID": 45320, "SITE_NO": 5057, "SITE_NAME": "MOORABOOL/FYANS", "SITE_TYPE": "INT", "STATUS": "OPERATIONAL", "lat": -38.1617039988483, "lon": 144.354110999988, "SIGNAL": "Y"}, {"OBJECTID": 45321, "SITE_NO": 5058, "SITE_NAME": "HIGH ST/BARWON HEADS/BARRABOOL", "SITE_TYPE": "INT", "STATUS": "OPERATIONAL", "lat": -38.1675789991818, "lon": 144.350644000237, "SIGNAL": "Y"}, {"OBJECTID": 45322, "SITE_NO": 5059, "SITE_NAME": "HIGH/MT PLEASANT", "SITE_TYPE": "INT", "STATUS": "OPERATIONAL", "lat": -38.1711579992831, "lon": 144.346875999559, "SIGNAL": "G"}, {"OBJECTID": 45323, "SITE_NO": 3878, "SITE_NAME": "BURNLEY/NORTHERN ACCESS RD", "SITE_TYPE": "INT", "STATUS": "OPERATIONAL", "lat": -37.8124449992047, "lon": 145.009591999851, "SIGNAL": "Y"}, {"OBJECTID": 45324, "SITE_NO": 4157, "SITE_NAME": "HIGH NR UNION", "SITE_TYPE": "POS", "STATUS": "OPERATIONAL", "lat": -37.7793899995328, "lon": 144.996992000096, "SIGNAL": "R"}, {"OBJECTID": 45325, "SITE_NO": 4987, "SITE_NAME": "PLENTY/BETULA", "SITE_TYPE": "INT", "STATUS": "OPERATIONAL", "lat": -37.6830019994783, "lon": 145.06891099989, "SIGNAL": "Y"}, {"OBJECTID": 45326, "SITE_NO": 4986, "SITE_NAME": "PLENTY/CLEMENTS", "SITE_TYPE": "INT", "STATUS": "OPERATIONAL", "lat": -37.681840999353, "lon": 145.069125999989, "SIGNAL": "Y"}, {"OBJECTID": 45327, "SITE_NO": 4978, "SITE_NAME": "FERGUSON NR MELBOURNE", "SITE_TYPE": "FLASH PX", "STATUS": "OPERATIONAL", "lat": -37.857668999534, "lon": 144.886945999544, "SIGNAL": "Y"}, {"OBJECTID": 45328, "SITE_NO": 5255, "SITE_NAME": "BALLAN/CAMBRIDGE", "SITE_TYPE": "INT", "STATUS": "OPERATIONAL", "lat": -37.8959909990055, "lon": 144.637304999854, "SIGNAL": "Y"}, {"OBJECTID": 45329, "SITE_NO": 5088, "SITE_NAME": "SURF COAST HWY/PIONEER", "SITE_TYPE": "INT", "STATUS": "OPERATIONAL", "lat": -38.2031109990249, "lon": 144.3409590005, "SIGNAL": "G"}, {"OBJECTID": 45330, "SITE_NO": 5060, "SITE_NAME": "HIGH/REGENT", "SITE_TYPE": "INT", "STATUS": "OPERATIONAL", "lat": -38.1733219987476, "lon": 144.344573000385, "SIGNAL": "G"}, {"OBJECTID": 45331, "SITE_NO": 5061, "SITE_NAME": "HIGH NR ROSLYN", "SITE_TYPE": "POS", "STATUS": "OPERATIONAL", "lat": -38.1753879993726, "lon": 144.342373000479, "SIGNAL": "R"}, {"OBJECTID": 45332, "SITE_NO": 5062, "SITE_NAME": "HIGH/ROSLYN/THOMSON/CORIO", "SITE_TYPE": "INT", "STATUS": "OPERATIONAL", "lat": -38.1753879993726, "lon": 144.342373000479, "SIGNAL": "G"}, {"OBJECTID": 45333, "SITE_NO": 5063, "SITE_NAME": "HIGH NR DOROTHY", "SITE_TYPE": "POS", "STATUS": "OPERATIONAL", "lat": -38.1782209986752, "lon": 144.339348000166, "SIGNAL": "R"}, {"OBJECTID": 45334, "SITE_NO": 5066, "SITE_NAME": "CORIO-WAURN PONDS / REYNOLDS", "SITE_TYPE": "INT", "STATUS": "OPERATIONAL", "lat": -38.1893459992081, "lon": 144.327742000233, "SIGNAL": "R"}, {"OBJECTID": 45335, "SITE_NO": 4433, "SITE_NAME": "HAMPSHIRE NR SERVICE", "SITE_TYPE": "POS", "STATUS": "OPERATIONAL", "lat": -37.7825199991602, "lon": 144.832489000007, "SIGNAL": "R"}, {"OBJECTID": 45336, "SITE_NO": 753, "SITE_NAME": "SEAFORD/RAILWAY/FORTESCUE", "SITE_TYPE": "INT", "STATUS": "OPERATIONAL", "lat": -38.110544999126, "lon": 145.130796999625, "SIGNAL": "G"}, {"OBJECTID": 45337, "SITE_NO": 5105, "SITE_NAME": "PHW/GRANT/HART", "SITE_TYPE": "INT", "STATUS": "OPERATIONAL", "lat": -38.3392989994302, "lon": 143.581659999859, "SIGNAL": "G"}, {"OBJECTID": 45338, "SITE_NO": 1260, "SITE_NAME": "CRANBOURNE-FRANKSTON/NORTHGATEWAY/QUARRY", "SITE_TYPE": "INT", "STATUS": "OPERATIONAL", "lat": -38.1446699990573, "lon": 145.205079000421, "SIGNAL": "Y"}, {"OBJECTID": 45339, "SITE_NO": 1261, "SITE_NAME": "CRANBOURNE-FRANKSTON/CENTRE/POTTS", "SITE_TYPE": "INT", "STATUS": "OPERATIONAL", "lat": -38.1416489988363, "lon": 145.211640000539, "SIGNAL": "Y"}, {"OBJECTID": 45340, "SITE_NO": 6291, "SITE_NAME": "CONDON/RESERVOIR", "SITE_TYPE": "INT", "STATUS": "OPERATIONAL", "lat": -36.7751919995343, "lon": 144.308553000053, "SIGNAL": "G"}, {"OBJECTID": 45341, "SITE_NO": 3474, "SITE_NAME": "MAHER NR THOMAS", "SITE_TYPE": "FLASH PX", "STATUS": "OPERATIONAL", "lat": -37.8635409991712, "lon": 144.770989000455, "SIGNAL": "R"}, {"OBJECTID": 45342, "SITE_NO": 2683, "SITE_NAME": "HIGH/BARRIES", "SITE_TYPE": "INT", "STATUS": "OPERATIONAL", "lat": -37.6849579991645, "lon": 144.558998999966, "SIGNAL": "R"}, {"OBJECTID": 45343, "SITE_NO": 6446, "SITE_NAME": "CALDER HWY NR MILDURA PLAZA", "SITE_TYPE": "POS", "STATUS": "OPERATIONAL", "lat": -34.2077839995556, "lon": 142.137233999932, "SIGNAL": "Y"}, {"OBJECTID": 45344, "SITE_NO": 2735, "SITE_NAME": "SUNSHINE/CALVERTON", "SITE_TYPE": "INT", "STATUS": "OPERATIONAL", "lat": -37.7355629994679, "lon": 144.820191999973, "SIGNAL": "Y"}, {"OBJECTID": 45345, "SITE_NO": 2741, "SITE_NAME": "SUNSHINE/COPERNICUS", "SITE_TYPE": "INT", "STATUS": "OPERATIONAL", "lat": -37.7233569994533, "lon": 144.807882999638, "SIGNAL": "R"}, {"OBJECTID": 45346, "SITE_NO": 801, "SITE_NAME": "STUD/STUD PARK SHOPPING CENTRE", "SITE_TYPE": "INT", "STATUS": "OPERATIONAL", "lat": -37.9191909992184, "lon": 145.234714999594, "SIGNAL": "R"}, {"OBJECTID": 45347, "SITE_NO": 6078, "SITE_NAME": "MIDLAND HWY/FRYERS", "SITE_TYPE": "INT", "STATUS": "OPERATIONAL", "lat": -36.3794039994343, "lon": 145.395800000531, "SIGNAL": "Y"}, {"OBJECTID": 45348, "SITE_NO": 961, "SITE_NAME": "STH GIPPS'D HWY/ABBOTTS", "SITE_TYPE": "INT", "STATUS": "OPERATIONAL", "lat": -38.0349339994161, "lon": 145.245487000316, "SIGNAL": "G"}, {"OBJECTID": 45349, "SITE_NO": 705, "SITE_NAME": "MANNINGHAM/AYR", "SITE_TYPE": "INT", "STATUS": "OPERATIONAL", "lat": -37.7724169987429, "lon": 145.104749000537, "SIGNAL": "G"}, {"OBJECTID": 45350, "SITE_NO": 848, "SITE_NAME": "CANTERBURY/STEVENS", "SITE_TYPE": "INT", "STATUS": "OPERATIONAL", "lat": -37.8362699995649, "lon": 145.185177000439, "SIGNAL": "Y"}, {"OBJECTID": 45351, "SITE_NO": 2634, "SITE_NAME": "MCINTYRE/SUFFOLK", "SITE_TYPE": "INT", "STATUS": "OPERATIONAL", "lat": -37.7716009995097, "lon": 144.829734999941, "SIGNAL": "R"}, {"OBJECTID": 45352, "SITE_NO": 2212, "SITE_NAME": "MAROONDAH HWY/MARKET/MURRAY", "SITE_TYPE": "INT", "STATUS": "OPERATIONAL", "lat": -37.8167339992295, "lon": 145.22437499999, "SIGNAL": "R"}, {"OBJECTID": 45353, "SITE_NO": 2701, "SITE_NAME": "MELTON HWY/SUNSHINE", "SITE_TYPE": "POS", "STATUS": "OPERATIONAL", "lat": -37.7016279990214, "lon": 144.800222000366, "SIGNAL": "Y"}, {"OBJECTID": 45354, "SITE_NO": 591, "SITE_NAME": "STH GIPPS'D HWY NR LYALL", "SITE_TYPE": "POS", "STATUS": "OPERATIONAL", "lat": -38.2137379994912, "lon": 145.381209999833, "SIGNAL": "R"}, {"OBJECTID": 45355, "SITE_NO": 6823, "SITE_NAME": "KOROIT NR LIEBIG & KEPLER", "SITE_TYPE": "POS", "STATUS": "OPERATIONAL", "lat": -38.3830939995087, "lon": 142.482458999827, "SIGNAL": "R"}, {"OBJECTID": 45356, "SITE_NO": 159, "SITE_NAME": "BURWOOD HWY/LAKEWOOD", "SITE_TYPE": "INT", "STATUS": "OPERATIONAL", "lat": -37.8750269987967, "lon": 145.253613999864, "SIGNAL": "Y"}, {"OBJECTID": 45357, "SITE_NO": 3484, "SITE_NAME": "MAIDSTONE NR GATE 6", "SITE_TYPE": "POS", "STATUS": "OPERATIONAL", "lat": -37.8494709986865, "lon": 144.80899999982, "SIGNAL": "R"}, {"OBJECTID": 45358, "SITE_NO": 4775, "SITE_NAME": "HIGH ST/BUNNINGS ACCESS", "SITE_TYPE": "INT", "STATUS": "OPERATIONAL", "lat": -37.6524159987935, "lon": 145.023299000244, "SIGNAL": "G"}, {"OBJECTID": 45359, "SITE_NO": 4733, "SITE_NAME": "ALBERT/LAKESIDE", "SITE_TYPE": "INT", "STATUS": "OPERATIONAL", "lat": -37.837379998852, "lon": 144.967663999889, "SIGNAL": "Y"}, {"OBJECTID": 45360, "SITE_NO": 4734, "SITE_NAME": "QUEENS/LINK", "SITE_TYPE": "INT", "STATUS": "OPERATIONAL", "lat": -37.8494929990696, "lon": 144.977943000157, "SIGNAL": "R"}, {"OBJECTID": 45361, "SITE_NO": 755, "SITE_NAME": "MOOROODUC HWY NR RAIL CROSSING", "SITE_TYPE": "POS", "STATUS": "OPERATIONAL", "lat": -38.1499129987119, "lon": 145.134358000267, "SIGNAL": "R"}, {"OBJECTID": 45362, "SITE_NO": 5658, "SITE_NAME": "PHE/MYER", "SITE_TYPE": "INT", "STATUS": "OPERATIONAL", "lat": -37.8792799993591, "lon": 147.993991000433, "SIGNAL": "R"}, {"OBJECTID": 45363, "SITE_NO": 2445, "SITE_NAME": "QUEENS O'HEAD N ARTHUR GANTRY 02", "SITE_TYPE": "OH LANE", "STATUS": "OPERATIONAL", "lat": -37.8390499988711, "lon": 144.974181000012, "SIGNAL": "G"}, {"OBJECTID": 45364, "SITE_NO": 2446, "SITE_NAME": "QUEENS O'HEAD N LEOPOLD GANTRY 03", "SITE_TYPE": "OH LANE", "STATUS": "OPERATIONAL", "lat": -37.841352999546, "lon": 144.975022000301, "SIGNAL": "Y"}, {"OBJECTID": 45365, "SITE_NO": 2447, "SITE_NAME": "QUEENS O'HEAD N LOUISE GANTRY 04", "SITE_TYPE": "OH LANE", "STATUS": "OPERATIONAL", "lat": -37.843340999191, "lon": 144.975740999711, "SIGNAL": "G"}, {"OBJECTID": 45366, "SITE_NO": 2448, "SITE_NAME": "QUEENS O'HEAD N ROY GANTRY 05", "SITE_TYPE": "OH LANE", "STATUS": "OPERATIONAL", "lat": -37.8460249988065, "lon": 144.976720000462, "SIGNAL": "G"}, {"OBJECTID": 45367, "SITE_NO": 2449, "SITE_NAME": "QUEENS O'HEAD N BEATRICE GANTRY 06", "SITE_TYPE": "OH LANE", "STATUS": "OPERATIONAL", "lat": -37.8478839995166, "lon": 144.977401999955, "SIGNAL": "G"}, {"OBJECTID": 45368, "SITE_NO": 2450, "SITE_NAME": "QUEENS O'HEAD S BEATRICE GANTRY 07", "SITE_TYPE": "OH LANE", "STATUS": "OPERATIONAL", "lat": -37.8487669987703, "lon": 144.977704999688, "SIGNAL": "R"}, {"OBJECTID": 45369, "SITE_NO": 2467, "SITE_NAME": "QUEENS O'HEAD N LORNE GANTRY 08", "SITE_TYPE": "OH LANE", "STATUS": "OPERATIONAL", "lat": -37.8505119992585, "lon": 144.978276999514, "SIGNAL": "R"}, {"OBJECTID": 45370, "SITE_NO": 116, "SITE_NAME": "MAROONDAH HWY/FIRE STN", "SITE_TYPE": "FIRE SIG", "STATUS": "OPERATIONAL", "lat": -37.8185089989353, "lon": 145.178256999449, "SIGNAL": "G"}, {"OBJECTID": 45371, "SITE_NO": 5311, "SITE_NAME": "NOBLE NR CLAREMONT", "SITE_TYPE": "POS", "STATUS": "OPERATIONAL", "lat": -38.1530329988535, "lon": 144.337776999592, "SIGNAL": "R"}, {"OBJECTID": 45372, "SITE_NO": 377, "SITE_NAME": "FERNTREE GULLY/ENT BUNNINGS (KNOX)", "SITE_TYPE": "INT", "STATUS": "OPERATIONAL", "lat": -37.8976079989366, "lon": 145.243149999563, "SIGNAL": "G"}, {"OBJECTID": 45373, "SITE_NO": 157, "SITE_NAME": "MAROONDAH HWY/KIMBERLEY/FLETCHER", "SITE_TYPE": "INT", "STATUS": "OPERATIONAL", "lat": -37.7613579994396, "lon": 145.310585000497, "SIGNAL": "Y"}, {"OBJECTID": 45374, "SITE_NO": 2645, "SITE_NAME": "MELTON HWY/OVERTON LEA", "SITE_TYPE": "INT", "STATUS": "OPERATIONAL", "lat": -37.6946169994619, "lon": 144.766158999523, "SIGNAL": "G"}, {"OBJECTID": 45375, "SITE_NO": 6656, "SITE_NAME": "PRINCES HWY/VILLAGE", "SITE_TYPE": "INT", "STATUS": "OPERATIONAL", "lat": -38.2208819993788, "lon": 146.471994999858, "SIGNAL": "Y"}, {"OBJECTID": 45376, "SITE_NO": 4494, "SITE_NAME": "ARDEN/CURZON", "SITE_TYPE": "INT", "STATUS": "OPERATIONAL", "lat": -37.8008149987839, "lon": 144.948512000383, "SIGNAL": "Y"}, {"OBJECTID": 45377, "SITE_NO": 4495, "SITE_NAME": "ARDEN/ERROL", "SITE_TYPE": "INT", "STATUS": "OPERATIONAL", "lat": -37.8010229992734, "lon": 144.9504239995, "SIGNAL": "Y"}, {"OBJECTID": 45378, "SITE_NO": 4496, "SITE_NAME": "QUEENSBERRY/ABBOTSFORD", "SITE_TYPE": "INT", "STATUS": "OPERATIONAL", "lat": -37.8025949990467, "lon": 144.945530999883, "SIGNAL": "Y"}, {"OBJECTID": 45379, "SITE_NO": 2149, "SITE_NAME": "SYDNEY / CAMPBELLFIELD SHOPPING CENTRE", "SITE_TYPE": "INT", "STATUS": "OPERATIONAL", "lat": -37.6878499990977, "lon": 144.958050000493, "SIGNAL": "R"}, {"OBJECTID": 45380, "SITE_NO": 597, "SITE_NAME": "PRINCES HWY/ARMY", "SITE_TYPE": "INT", "STATUS": "OPERATIONAL", "lat": -38.0682259987122, "lon": 145.496971999552, "SIGNAL": "R"}, {"OBJECTID": 45381, "SITE_NO": 175, "SITE_NAME": "STUD/KNOX TAFE COLLEGE ENT/RIVERPARK", "SITE_TYPE": "INT", "STATUS": "OPERATIONAL", "lat": -37.8731019992994, "lon": 145.232934999733, "SIGNAL": "G"}, {"OBJECTID": 45382, "SITE_NO": 799, "SITE_NAME": "STUD/HARCREST BLVD", "SITE_TYPE": "INT", "STATUS": "OPERATIONAL", "lat": -37.8823049990948, "lon": 145.232928999471, "SIGNAL": "R"}, {"OBJECTID": 45383, "SITE_NO": 3435, "SITE_NAME": "WHITEHALL/SOMERVILLE", "SITE_TYPE": "INT", "STATUS": "OPERATIONAL", "lat": -37.8146649990233, "lon": 144.899771000182, "SIGNAL": "G"}, {"OBJECTID": 45384, "SITE_NO": 2644, "SITE_NAME": "MCINTYRE/PHOENIX", "SITE_TYPE": "INT", "STATUS": "OPERATIONAL", "lat": -37.7752249991148, "lon": 144.829058000406, "SIGNAL": "G"}, {"OBJECTID": 45385, "SITE_NO": 2658, "SITE_NAME": "WESTERN HWY/CHRISTIES/CAROLINE SPRING", "SITE_TYPE": "INT", "STATUS": "OPERATIONAL", "lat": -37.7563319994153, "lon": 144.739647000447, "SIGNAL": "G"}, {"OBJECTID": 45386, "SITE_NO": 2984, "SITE_NAME": "MALVERN NR WESTBOURNE", "SITE_TYPE": "POS", "STATUS": "OPERATIONAL", "lat": -37.8483239992166, "lon": 145.004896999619, "SIGNAL": "Y"}, {"OBJECTID": 45387, "SITE_NO": 3505, "SITE_NAME": "QUEEN NR SARGOOD", "SITE_TYPE": "FLASH PX", "STATUS": "OPERATIONAL", "lat": -37.8692929992382, "lon": 144.828756999979, "SIGNAL": "R"}, {"OBJECTID": 45388, "SITE_NO": 2750, "SITE_NAME": "ST ALBANS NR DEBENHAM", "SITE_TYPE": "POS", "STATUS": "OPERATIONAL", "lat": -37.7523829988841, "lon": 144.806067999982, "SIGNAL": "Y"}, {"OBJECTID": 45389, "SITE_NO": 2342, "SITE_NAME": "NEPEAN HWY/MCDONALD", "SITE_TYPE": "POS", "STATUS": "OPERATIONAL", "lat": -38.0055879990558, "lon": 145.086336999493, "SIGNAL": "R"}, {"OBJECTID": 45390, "SITE_NO": 510, "SITE_NAME": "STATION/THAMES PROMENADE", "SITE_TYPE": "INT", "STATUS": "OPERATIONAL", "lat": -38.0506089993768, "lon": 145.11561999958, "SIGNAL": "Y"}, {"OBJECTID": 45391, "SITE_NO": 3082, "SITE_NAME": "PENTRIDGE NR ACCESS ROAD", "SITE_TYPE": "POS", "STATUS": "OPERATIONAL", "lat": -37.7381489987679, "lon": 144.968781000465, "SIGNAL": "G"}, {"OBJECTID": 45392, "SITE_NO": 290, "SITE_NAME": "PHE/SMITH", "SITE_TYPE": "INT", "STATUS": "OPERATIONAL", "lat": -37.9415529986966, "lon": 145.165944999624, "SIGNAL": "G"}, {"OBJECTID": 45393, "SITE_NO": 3042, "SITE_NAME": "BELL/ALVA", "SITE_TYPE": "INT", "STATUS": "OPERATIONAL", "lat": -37.7421689988058, "lon": 144.974348999976, "SIGNAL": "G"}, {"OBJECTID": 45394, "SITE_NO": 3299, "SITE_NAME": "HEIDELBERG NR THE ESPLANADE", "SITE_TYPE": "POS", "STATUS": "OPERATIONAL", "lat": -37.7847909991661, "lon": 145.002604000135, "SIGNAL": "R"}, {"OBJECTID": 45395, "SITE_NO": 4478, "SITE_NAME": "WESTERN LINK NB ENTRY/MT ALEXANDER", "SITE_TYPE": "INT", "STATUS": "OPERATIONAL", "lat": -37.7859959986934, "lon": 144.939135999904, "SIGNAL": "R"}, {"OBJECTID": 45396, "SITE_NO": 4486, "SITE_NAME": "WESTERN LINK/DYNON ON RAMP NORTH BD", "SITE_TYPE": "INT", "STATUS": "OPERATIONAL", "lat": -37.8046769991167, "lon": 144.935323999972, "SIGNAL": "R"}, {"OBJECTID": 45397, "SITE_NO": 156, "SITE_NAME": "MERRINDALE NR CENTRE", "SITE_TYPE": "FLASH PX", "STATUS": "OPERATIONAL", "lat": -37.8134439988897, "lon": 145.289862000232, "SIGNAL": "R"}, {"OBJECTID": 45398, "SITE_NO": 596, "SITE_NAME": "MITCHAM/PREMIER/REDLAND", "SITE_TYPE": "INT", "STATUS": "OPERATIONAL", "lat": -37.830612998718, "lon": 145.194849999884, "SIGNAL": "R"}, {"OBJECTID": 45399, "SITE_NO": 5334, "SITE_NAME": "BAANIP BOULEVARD / SOVEREIGN DR", "SITE_TYPE": "INT", "STATUS": "OPERATIONAL", "lat": -38.214959999527, "lon": 144.326416000493, "SIGNAL": "R"}, {"OBJECTID": 45400, "SITE_NO": 2502, "SITE_NAME": "SMITHFIELD/GATEHOUSE/STABLES", "SITE_TYPE": "INT", "STATUS": "OPERATIONAL", "lat": -37.791071999219, "lon": 144.919820000289, "SIGNAL": "R"}, {"OBJECTID": 45401, "SITE_NO": 554, "SITE_NAME": "BONEO/MCCOMBE", "SITE_TYPE": "INT", "STATUS": "OPERATIONAL", "lat": -38.3608989994601, "lon": 144.889681999992, "SIGNAL": "G"}, {"OBJECTID": 45402, "SITE_NO": 1076, "SITE_NAME": "GEORGIANA/WURUNDJERI", "SITE_TYPE": "INT", "STATUS": "OPERATIONAL", "lat": -37.8221999990926, "lon": 144.950844999459, "SIGNAL": "R"}, {"OBJECTID": 45403, "SITE_NO": 306, "SITE_NAME": "WARBURTON HWY NR HEARSE", "SITE_TYPE": "POS", "STATUS": "OPERATIONAL", "lat": -37.7551639993759, "lon": 145.652958000397, "SIGNAL": "Y"}, {"OBJECTID": 45404, "SITE_NO": 5078, "SITE_NAME": "MALOP/YARRA", "SITE_TYPE": "INT", "STATUS": "OPERATIONAL", "lat": -38.1479779988712, "lon": 144.363256999592, "SIGNAL": "Y"}, {"OBJECTID": 45405, "SITE_NO": 5079, "SITE_NAME": "CORIO-WAURN POND(SETTLEMENT/BARWON HEADS", "SITE_TYPE": "INT", "STATUS": "OPERATIONAL", "lat": -38.1752389995362, "lon": 144.352389000106, "SIGNAL": "Y"}, {"OBJECTID": 45406, "SITE_NO": 5080, "SITE_NAME": "CHURCH/MINERVA", "SITE_TYPE": "INT", "STATUS": "OPERATIONAL", "lat": -38.12984199907, "lon": 144.331938999467, "SIGNAL": "Y"}, {"OBJECTID": 45407, "SITE_NO": 5081, "SITE_NAME": "YARRA/LT MALOP", "SITE_TYPE": "INT", "STATUS": "OPERATIONAL", "lat": -38.1489819993455, "lon": 144.36280000001, "SIGNAL": "Y"}, {"OBJECTID": 45408, "SITE_NO": 5082, "SITE_NAME": "MALOP NR YARRA", "SITE_TYPE": "POS", "STATUS": "OPERATIONAL", "lat": -38.1478379988143, "lon": 144.362744999614, "SIGNAL": "R"}, {"OBJECTID": 45409, "SITE_NO": 2145, "SITE_NAME": "SYDNEY RD/GRASSLANDS", "SITE_TYPE": "INT", "STATUS": "OPERATIONAL", "lat": -37.6169639988774, "lon": 144.947026999968, "SIGNAL": "R"}, {"OBJECTID": 45410, "SITE_NO": 892, "SITE_NAME": "WARRANDYTE/WONGA", "SITE_TYPE": "INT", "STATUS": "OPERATIONAL", "lat": -37.8003679991689, "lon": 145.234533999955, "SIGNAL": "G"}, {"OBJECTID": 45411, "SITE_NO": 2680, "SITE_NAME": "CAROLINE SPRINGS/COMMERCIAL", "SITE_TYPE": "INT", "STATUS": "OPERATIONAL", "lat": -37.7295739989851, "lon": 144.741608999658, "SIGNAL": "G"}, {"OBJECTID": 45412, "SITE_NO": 3449, "SITE_NAME": "JOHNSTON/PATTERSON", "SITE_TYPE": "INT", "STATUS": "OPERATIONAL", "lat": -37.8006509993847, "lon": 145.001231999674, "SIGNAL": "Y"}, {"OBJECTID": 45413, "SITE_NO": 6810, "SITE_NAME": "PHW NR REGENT", "SITE_TYPE": "POS", "STATUS": "OPERATIONAL", "lat": -38.3813549992816, "lon": 142.22930900015, "SIGNAL": "Y"}, {"OBJECTID": 45414, "SITE_NO": 603, "SITE_NAME": "MONASH FWY/STUD O/B RAMP", "SITE_TYPE": "RAMP MTR", "STATUS": "OPERATIONAL", "lat": -37.957748999455, "lon": 145.225827000374, "SIGNAL": "R"}, {"OBJECTID": 45415, "SITE_NO": 1233, "SITE_NAME": "TAYLORS NEAR WATERVALE BLVD", "SITE_TYPE": "POS", "STATUS": "OPERATIONAL", "lat": -37.725512999238, "lon": 144.763641000271, "SIGNAL": "G"}, {"OBJECTID": 45416, "SITE_NO": 4163, "SITE_NAME": "DOCKLANDS DR/PEARL RIVER ROAD", "SITE_TYPE": "INT", "STATUS": "OPERATIONAL", "lat": -37.8148239989785, "lon": 144.937711000311, "SIGNAL": "R"}, {"OBJECTID": 45417, "SITE_NO": 3967, "SITE_NAME": "DOCKLANDS/DOEPEL/WATERFRONT", "SITE_TYPE": "INT", "STATUS": "OPERATIONAL", "lat": -37.8140959990593, "lon": 144.939636000155, "SIGNAL": "G"}, {"OBJECTID": 45418, "SITE_NO": 297, "SITE_NAME": "MAROONDAH HWY/BRAND SMART", "SITE_TYPE": "INT", "STATUS": "OPERATIONAL", "lat": -37.8183689994942, "lon": 145.172127999707, "SIGNAL": "Y"}, {"OBJECTID": 45419, "SITE_NO": 2696, "SITE_NAME": "WESTMORELAND BTW BALLARAT & PHOENIX", "SITE_TYPE": "FLASH PX", "STATUS": "OPERATIONAL", "lat": -37.7767929995258, "lon": 144.834748000252, "SIGNAL": "R"}, {"OBJECTID": 45420, "SITE_NO": 5330, "SITE_NAME": "WESTERN HWY/LAWRENCE", "SITE_TYPE": "INT", "STATUS": "OPERATIONAL", "lat": -37.4298209989765, "lon": 143.38370800006, "SIGNAL": "R"}, {"OBJECTID": 45421, "SITE_NO": 2641, "SITE_NAME": "WESTERN HWY/HARVESTER", "SITE_TYPE": "INT", "STATUS": "OPERATIONAL", "lat": -37.7772239987301, "lon": 144.830646999974, "SIGNAL": "R"}, {"OBJECTID": 45422, "SITE_NO": 2643, "SITE_NAME": "DEVONSHIRE/HARVESTER", "SITE_TYPE": "INT", "STATUS": "OPERATIONAL", "lat": -37.7846719992327, "lon": 144.830343999621, "SIGNAL": "R"}, {"OBJECTID": 45423, "SITE_NO": 2642, "SITE_NAME": "ANDERSON/FOUNDRY", "SITE_TYPE": "INT", "STATUS": "OPERATIONAL", "lat": -37.7791089988805, "lon": 144.828374999702, "SIGNAL": "G"}, {"OBJECTID": 45424, "SITE_NO": 3636, "SITE_NAME": "BLUFF NR HOLLOWAY", "SITE_TYPE": "POS", "STATUS": "OPERATIONAL", "lat": -37.9568569993218, "lon": 145.020047999962, "SIGNAL": "R"}, {"OBJECTID": 45425, "SITE_NO": 838, "SITE_NAME": "RAILWAY NR BLACKBURN", "SITE_TYPE": "FLASH PX", "STATUS": "OPERATIONAL", "lat": -37.8197309995409, "lon": 145.152765999654, "SIGNAL": "R"}, {"OBJECTID": 45426, "SITE_NO": 870, "SITE_NAME": "STATION NR CARRUM RAIL STATION", "SITE_TYPE": "FLASH PX", "STATUS": "OPERATIONAL", "lat": -38.0754279987785, "lon": 145.122886000351, "SIGNAL": "R"}, {"OBJECTID": 45427, "SITE_NO": 5260, "SITE_NAME": "CHERRY/RAILWAY", "SITE_TYPE": "INT", "STATUS": "OPERATIONAL", "lat": -37.8979119993272, "lon": 144.663752000265, "SIGNAL": "R"}, {"OBJECTID": 45428, "SITE_NO": 5261, "SITE_NAME": "AVIATION/MAHER", "SITE_TYPE": "INT", "STATUS": "OPERATIONAL", "lat": -37.8659779994923, "lon": 144.761437999671, "SIGNAL": "G"}, {"OBJECTID": 45429, "SITE_NO": 111, "SITE_NAME": "MAROONDAH HWY/METROPOLITAN", "SITE_TYPE": "INT", "STATUS": "OPERATIONAL", "lat": -37.8182669993991, "lon": 145.168460000317, "SIGNAL": "R"}, {"OBJECTID": 45430, "SITE_NO": 5026, "SITE_NAME": "CORIO-WAURN PONDS/PIGDONS", "SITE_TYPE": "INT", "STATUS": "OPERATIONAL", "lat": -38.202288999238, "lon": 144.306297000449, "SIGNAL": "Y"}, {"OBJECTID": 45431, "SITE_NO": 5262, "SITE_NAME": "DERRIMUT/RAILWAY", "SITE_TYPE": "INT", "STATUS": "OPERATIONAL", "lat": -37.89068099933, "lon": 144.680242000301, "SIGNAL": "G"}, {"OBJECTID": 45432, "SITE_NO": 2669, "SITE_NAME": "HIGH NR COBURNS", "SITE_TYPE": "POS", "STATUS": "OPERATIONAL", "lat": -37.6843809989158, "lon": 144.567140000473, "SIGNAL": "R"}, {"OBJECTID": 45433, "SITE_NO": 1039, "SITE_NAME": "QUEENSBERRY/CARDIGAN", "SITE_TYPE": "INT", "STATUS": "OPERATIONAL", "lat": -37.8047279990959, "lon": 144.964733999632, "SIGNAL": "G"}, {"OBJECTID": 45434, "SITE_NO": 1038, "SITE_NAME": "PUNT/GATE 6", "SITE_TYPE": "INT", "STATUS": "OPERATIONAL", "lat": -37.8214499988786, "lon": 144.989386999943, "SIGNAL": "R"}, {"OBJECTID": 45435, "SITE_NO": 3727, "SITE_NAME": "PLENTY/GRANGE/SNAKE GULLY", "SITE_TYPE": "INT", "STATUS": "OPERATIONAL", "lat": -37.7090679995423, "lon": 145.050761999614, "SIGNAL": "Y"}, {"OBJECTID": 45436, "SITE_NO": 3175, "SITE_NAME": "NARRE WARREN-CRANBOURNE/GLASSCOCKS", "SITE_TYPE": "INT", "STATUS": "OPERATIONAL", "lat": -38.0717999994379, "lon": 145.297834000524, "SIGNAL": "R"}, {"OBJECTID": 45437, "SITE_NO": 2040, "SITE_NAME": "WILLIAMSONS/AQUARENA/NORTH", "SITE_TYPE": "INT", "STATUS": "OPERATIONAL", "lat": -37.7738209990111, "lon": 145.1269570002, "SIGNAL": "R"}, {"OBJECTID": 45438, "SITE_NO": 6079, "SITE_NAME": "WELSFORD/FRYERS", "SITE_TYPE": "INT", "STATUS": "OPERATIONAL", "lat": -36.3788309991837, "lon": 145.398316000463, "SIGNAL": "Y"}, {"OBJECTID": 45439, "SITE_NO": 305, "SITE_NAME": "STH GIPPSLAND HWY/LYNBROOK", "SITE_TYPE": "INT", "STATUS": "OPERATIONAL", "lat": -38.0505249990835, "lon": 145.257577000455, "SIGNAL": "Y"}, {"OBJECTID": 45440, "SITE_NO": 5272, "SITE_NAME": "SYNNOT BTN WEDGE & BRIDGE", "SITE_TYPE": "POS", "STATUS": "OPERATIONAL", "lat": -37.9036769994737, "lon": 144.659696000289, "SIGNAL": "G"}, {"OBJECTID": 45441, "SITE_NO": 3273, "SITE_NAME": "WOOD NR LAUREL", "SITE_TYPE": "POS", "STATUS": "OPERATIONAL", "lat": -37.7362189994305, "lon": 145.029601000201, "SIGNAL": "G"}, {"OBJECTID": 45442, "SITE_NO": 122, "SITE_NAME": "MT DANDENONG/HAWTHORY", "SITE_TYPE": "INT", "STATUS": "OPERATIONAL", "lat": -37.8023289995249, "lon": 145.312383000254, "SIGNAL": "R"}, {"OBJECTID": 45443, "SITE_NO": 5226, "SITE_NAME": "MIDLAND HWY (CHURCH)/WEDDELL", "SITE_TYPE": "INT", "STATUS": "OPERATIONAL", "lat": -38.1314179989799, "lon": 144.344633000391, "SIGNAL": "G"}, {"OBJECTID": 45444, "SITE_NO": 5092, "SITE_NAME": "PHW/WERRIBEE/WATTON/SYNNOT", "SITE_TYPE": "INT", "STATUS": "OPERATIONAL", "lat": -37.9045589993324, "lon": 144.65550200038, "SIGNAL": "R"}, {"OBJECTID": 45445, "SITE_NO": 5093, "SITE_NAME": "WERRIBEE MAIN RD(PHW)/CHERRY/SYNNOT", "SITE_TYPE": "INT", "STATUS": "OPERATIONAL", "lat": -37.9003659995078, "lon": 144.665904000384, "SIGNAL": "Y"}, {"OBJECTID": 45446, "SITE_NO": 5094, "SITE_NAME": "PAKINGTON NR RETREAT", "SITE_TYPE": "POS", "STATUS": "OPERATIONAL", "lat": -38.1499399990298, "lon": 144.346531000313, "SIGNAL": "Y"}, {"OBJECTID": 45447, "SITE_NO": 5096, "SITE_NAME": "AUTUMN/PAKINGTON/GORDON", "SITE_TYPE": "INT", "STATUS": "OPERATIONAL", "lat": -38.1437579992138, "lon": 144.347682999603, "SIGNAL": "Y"}, {"OBJECTID": 45448, "SITE_NO": 5097, "SITE_NAME": "PAKINGTON/ALBERT", "SITE_TYPE": "INT", "STATUS": "OPERATIONAL", "lat": -38.140782999054, "lon": 144.348286000076, "SIGNAL": "G"}, {"OBJECTID": 45449, "SITE_NO": 5098, "SITE_NAME": "SEPARATION/THOMPSON", "SITE_TYPE": "INT", "STATUS": "OPERATIONAL", "lat": -38.1108169988558, "lon": 144.343394999507, "SIGNAL": "G"}, {"OBJECTID": 45450, "SITE_NO": 5099, "SITE_NAME": "ANAKIE/SEPARATION", "SITE_TYPE": "INT", "STATUS": "OPERATIONAL", "lat": -38.1094199991698, "lon": 144.331789999989, "SIGNAL": "R"}, {"OBJECTID": 45451, "SITE_NO": 5100, "SITE_NAME": "MIDLAND HWY/PAKINGTON/STUBBS", "SITE_TYPE": "INT", "STATUS": "OPERATIONAL", "lat": -38.1320979991279, "lon": 144.349926999562, "SIGNAL": "Y"}, {"OBJECTID": 45452, "SITE_NO": 5101, "SITE_NAME": "SEPARATION/DOURO", "SITE_TYPE": "INT", "STATUS": "OPERATIONAL", "lat": -38.1115589995345, "lon": 144.349801000293, "SIGNAL": "R"}, {"OBJECTID": 45453, "SITE_NO": 5102, "SITE_NAME": "MIDLAND HWY/CHURCH", "SITE_TYPE": "INT", "STATUS": "OPERATIONAL", "lat": -38.13109099908, "lon": 144.342952000474, "SIGNAL": "G"}, {"OBJECTID": 45454, "SITE_NO": 5103, "SITE_NAME": "MIDLAND HWY/SHANNON/THOMPSON", "SITE_TYPE": "INT", "STATUS": "OPERATIONAL", "lat": -38.1268699988111, "lon": 144.339325000013, "SIGNAL": "R"}, {"OBJECTID": 45455, "SITE_NO": 5104, "SITE_NAME": "MIDLAND HWY NR STODDART", "SITE_TYPE": "POS", "STATUS": "OPERATIONAL", "lat": -38.1237679995413, "lon": 144.336741000081, "SIGNAL": "G"}, {"OBJECTID": 45456, "SITE_NO": 5106, "SITE_NAME": "MIDLAND HWY/ANAKIE/VINES", "SITE_TYPE": "INT", "STATUS": "OPERATIONAL", "lat": -38.1159999989234, "lon": 144.330367000276, "SIGNAL": "R"}, {"OBJECTID": 45457, "SITE_NO": 5108, "SITE_NAME": "THOMPSON/MORGAN", "SITE_TYPE": "INT", "STATUS": "OPERATIONAL", "lat": -38.0998559994776, "lon": 144.345497000437, "SIGNAL": "Y"}, {"OBJECTID": 45458, "SITE_NO": 5110, "SITE_NAME": "ANAKIE NR BARTON", "SITE_TYPE": "POS", "STATUS": "OPERATIONAL", "lat": -38.1055389988322, "lon": 144.332541000232, "SIGNAL": "R"}, {"OBJECTID": 45459, "SITE_NO": 5111, "SITE_NAME": "CORIO-WAURN PONDS/YOORINGA/FORSTER", "SITE_TYPE": "INT", "STATUS": "OPERATIONAL", "lat": -38.0951809991216, "lon": 144.355950000493, "SIGNAL": "Y"}, {"OBJECTID": 45460, "SITE_NO": 5195, "SITE_NAME": "FENWICK/GORDON/RAILWAY", "SITE_TYPE": "INT", "STATUS": "OPERATIONAL", "lat": -38.1455029987138, "lon": 144.355857000269, "SIGNAL": "Y"}, {"OBJECTID": 45461, "SITE_NO": 5196, "SITE_NAME": "BELLARINE HWY (MCKILLOP)/YARRA", "SITE_TYPE": "INT", "STATUS": "OPERATIONAL", "lat": -38.1541439990821, "lon": 144.360424000548, "SIGNAL": "Y"}, {"OBJECTID": 45462, "SITE_NO": 5198, "SITE_NAME": "BELLARINE HWY (MCKILLOP)/SWANSTON", "SITE_TYPE": "INT", "STATUS": "OPERATIONAL", "lat": -38.15556899929, "lon": 144.365411999944, "SIGNAL": "R"}, {"OBJECTID": 45463, "SITE_NO": 5203, "SITE_NAME": "RYRIE/YARRA", "SITE_TYPE": "INT", "STATUS": "OPERATIONAL", "lat": -38.1500369990291, "lon": 144.362313999525, "SIGNAL": "R"}, {"OBJECTID": 45464, "SITE_NO": 5070, "SITE_NAME": "BROUGHAM/MOORABOOL", "SITE_TYPE": "INT", "STATUS": "OPERATIONAL", "lat": -38.145225999194, "lon": 144.361691999994, "SIGNAL": "G"}, {"OBJECTID": 45465, "SITE_NO": 5071, "SITE_NAME": "BELLARINE HWY ( MCKILLOP ) / GARDEN", "SITE_TYPE": "INT", "STATUS": "OPERATIONAL", "lat": -38.1569679991507, "lon": 144.370491999765, "SIGNAL": "G"}, {"OBJECTID": 45466, "SITE_NO": 5072, "SITE_NAME": "THOMPSON/COX", "SITE_TYPE": "INT", "STATUS": "OPERATIONAL", "lat": -38.0830169995343, "lon": 144.348771999598, "SIGNAL": "Y"}, {"OBJECTID": 45467, "SITE_NO": 5073, "SITE_NAME": "BACCHUS MARSH/PURNELL", "SITE_TYPE": "INT", "STATUS": "OPERATIONAL", "lat": -38.0741569994602, "lon": 144.358648000401, "SIGNAL": "G"}, {"OBJECTID": 45468, "SITE_NO": 5074, "SITE_NAME": "BELLARINE HWY (MCKILLOP) / GHERINGHAP", "SITE_TYPE": "INT", "STATUS": "OPERATIONAL", "lat": -38.1527089989499, "lon": 144.355402000216, "SIGNAL": "G"}, {"OBJECTID": 45469, "SITE_NO": 3989, "SITE_NAME": "SIMPLOT ACCESS/LLOYD", "SITE_TYPE": "INT", "STATUS": "OPERATIONAL", "lat": -37.8005879992931, "lon": 144.93293399993, "SIGNAL": "Y"}, {"OBJECTID": 45470, "SITE_NO": 3618, "SITE_NAME": "PASCOE VALE/SHANKLAND/RESERVOIR", "SITE_TYPE": "INT", "STATUS": "OPERATIONAL", "lat": -37.643785999353, "lon": 144.928999999773, "SIGNAL": "Y"}, {"OBJECTID": 45471, "SITE_NO": 2664, "SITE_NAME": "RALEIGH/RANDALL", "SITE_TYPE": "INT", "STATUS": "OPERATIONAL", "lat": -37.7686479992215, "lon": 144.889289000176, "SIGNAL": "G"}, {"OBJECTID": 45472, "SITE_NO": 4162, "SITE_NAME": "PEEL NR VICTORIA", "SITE_TYPE": "POS", "STATUS": "OPERATIONAL", "lat": -37.8071429990258, "lon": 144.955784000237, "SIGNAL": "R"}, {"OBJECTID": 45473, "SITE_NO": 4158, "SITE_NAME": "MURRAY/STOCKADE", "SITE_TYPE": "INT", "STATUS": "OPERATIONAL", "lat": -37.7354189992682, "lon": 144.970647999999, "SIGNAL": "R"}, {"OBJECTID": 45474, "SITE_NO": 2798, "SITE_NAME": "MILLEARA/THE CROSSWAY", "SITE_TYPE": "INT", "STATUS": "OPERATIONAL", "lat": -37.7464209989372, "lon": 144.862708999776, "SIGNAL": "G"}, {"OBJECTID": 45475, "SITE_NO": 5308, "SITE_NAME": "HAMILTON HWY (ABERDEEN)/MINERVA", "SITE_TYPE": "INT", "STATUS": "OPERATIONAL", "lat": -38.1446099994047, "lon": 144.329066000132, "SIGNAL": "R"}, {"OBJECTID": 45476, "SITE_NO": 5310, "SITE_NAME": "MIDLAND HWY/GLENLEITH", "SITE_TYPE": "INT", "STATUS": "OPERATIONAL", "lat": -38.1324739987861, "lon": 144.35191599966, "SIGNAL": "Y"}, {"OBJECTID": 45477, "SITE_NO": 4182, "SITE_NAME": "GRIMSHAW NR JESSOP", "SITE_TYPE": "FIRE W/W", "STATUS": "OPERATIONAL", "lat": -37.7041329988641, "lon": 145.098615000376, "SIGNAL": "Y"}, {"OBJECTID": 45478, "SITE_NO": 5905, "SITE_NAME": "SUNRAYSIA (HOWITT)/DOWLING", "SITE_TYPE": "INT", "STATUS": "OPERATIONAL", "lat": -37.5413329991144, "lon": 143.840003999955, "SIGNAL": "Y"}, {"OBJECTID": 45479, "SITE_NO": 5603, "SITE_NAME": "PHE/RAYMOND", "SITE_TYPE": "INT", "STATUS": "OPERATIONAL", "lat": -38.1115799990849, "lon": 147.065774999555, "SIGNAL": "Y"}, {"OBJECTID": 45480, "SITE_NO": 5606, "SITE_NAME": "PHE/MACARTHUR", "SITE_TYPE": "INT", "STATUS": "OPERATIONAL", "lat": -38.1051629989225, "lon": 147.067947000214, "SIGNAL": "G"}, {"OBJECTID": 45481, "SITE_NO": 5607, "SITE_NAME": "PHE(YORK)/MACALISTER", "SITE_TYPE": "INT", "STATUS": "OPERATIONAL", "lat": -38.1093539994686, "lon": 147.068166999448, "SIGNAL": "R"}, {"OBJECTID": 45482, "SITE_NO": 5608, "SITE_NAME": "GUTHRIDGE NR STEAD", "SITE_TYPE": "POS", "STATUS": "OPERATIONAL", "lat": -38.104189998782, "lon": 147.082775000295, "SIGNAL": "R"}, {"OBJECTID": 45483, "SITE_NO": 5654, "SITE_NAME": "PHE/SERVICE", "SITE_TYPE": "INT", "STATUS": "OPERATIONAL", "lat": -37.8265949989042, "lon": 147.629482000388, "SIGNAL": "Y"}, {"OBJECTID": 45484, "SITE_NO": 5205, "SITE_NAME": "SYDNEY/SWANSTON/RYRIE", "SITE_TYPE": "INT", "STATUS": "OPERATIONAL", "lat": -38.1514089993486, "lon": 144.367320000362, "SIGNAL": "R"}, {"OBJECTID": 45485, "SITE_NO": 5206, "SITE_NAME": "ORMOND/GARDEN/MYERS", "SITE_TYPE": "INT", "STATUS": "OPERATIONAL", "lat": -38.1549769993916, "lon": 144.371406000435, "SIGNAL": "Y"}, {"OBJECTID": 45486, "SITE_NO": 5207, "SITE_NAME": "BELLARINE HWY (MCKILLOP)/ORMOND", "SITE_TYPE": "INT", "STATUS": "OPERATIONAL", "lat": -38.1581859990033, "lon": 144.374526000198, "SIGNAL": "R"}, {"OBJECTID": 45487, "SITE_NO": 5208, "SITE_NAME": "BELLARINE HWY / COPPARDS", "SITE_TYPE": "INT", "STATUS": "OPERATIONAL", "lat": -38.1736459987761, "lon": 144.402460999681, "SIGNAL": "G"}, {"OBJECTID": 45488, "SITE_NO": 5209, "SITE_NAME": "BELLARINE HWY (ORMOND) / BOUNDARY", "SITE_TYPE": "INT", "STATUS": "OPERATIONAL", "lat": -38.1686859993966, "lon": 144.384507000275, "SIGNAL": "R"}, {"OBJECTID": 45489, "SITE_NO": 5210, "SITE_NAME": "BELLARINE HWY / WILSONS", "SITE_TYPE": "INT", "STATUS": "OPERATIONAL", "lat": -38.1706299987249, "lon": 144.391442000294, "SIGNAL": "G"}, {"OBJECTID": 45490, "SITE_NO": 5212, "SITE_NAME": "BELLARINE HWY/ASH/SIMONS", "SITE_TYPE": "INT", "STATUS": "OPERATIONAL", "lat": -38.1901999989402, "lon": 144.46885799998, "SIGNAL": "R"}, {"OBJECTID": 45491, "SITE_NO": 5213, "SITE_NAME": "GEELONG-PORTARLINGTON/POINT HENRY", "SITE_TYPE": "INT", "STATUS": "OPERATIONAL", "lat": -38.167200999126, "lon": 144.422310999729, "SIGNAL": "R"}, {"OBJECTID": 45492, "SITE_NO": 5215, "SITE_NAME": "BELLARINE HWY/MOOLAP STATION", "SITE_TYPE": "INT", "STATUS": "OPERATIONAL", "lat": -38.1785309994317, "lon": 144.420256000101, "SIGNAL": "R"}, {"OBJECTID": 45493, "SITE_NO": 5216, "SITE_NAME": "HODGSON/THE TERRACE", "SITE_TYPE": "INT", "STATUS": "OPERATIONAL", "lat": -38.2678799994665, "lon": 144.524632000418, "SIGNAL": "Y"}, {"OBJECTID": 45494, "SITE_NO": 4786, "SITE_NAME": "GILBERT/REGENT", "SITE_TYPE": "INT", "STATUS": "OPERATIONAL", "lat": -37.7293949991318, "lon": 144.991545999458, "SIGNAL": "Y"}, {"OBJECTID": 45495, "SITE_NO": 4787, "SITE_NAME": "GILBERT/MURRAY", "SITE_TYPE": "INT", "STATUS": "OPERATIONAL", "lat": -37.7365829992706, "lon": 144.990300999684, "SIGNAL": "Y"}, {"OBJECTID": 45496, "SITE_NO": 4788, "SITE_NAME": "GILBERT/CRAMER", "SITE_TYPE": "INT", "STATUS": "OPERATIONAL", "lat": -37.7390279988246, "lon": 144.989918999461, "SIGNAL": "G"}, {"OBJECTID": 45497, "SITE_NO": 4789, "SITE_NAME": "PLENTY/WOOD", "SITE_TYPE": "INT", "STATUS": "OPERATIONAL", "lat": -37.7343949987124, "lon": 145.013685000044, "SIGNAL": "Y"}, {"OBJECTID": 45498, "SITE_NO": 4790, "SITE_NAME": "PLENTY/MURRAY", "SITE_TYPE": "INT", "STATUS": "OPERATIONAL", "lat": -37.7388009994461, "lon": 145.011537000384, "SIGNAL": "R"}, {"OBJECTID": 45499, "SITE_NO": 4791, "SITE_NAME": "PLENTY/GOWER", "SITE_TYPE": "INT", "STATUS": "OPERATIONAL", "lat": -37.7410719995589, "lon": 145.009751999609, "SIGNAL": "G"}, {"OBJECTID": 45500, "SITE_NO": 5259, "SITE_NAME": "WERRIBEE/COTTRELL/PHW", "SITE_TYPE": "INT", "STATUS": "OPERATIONAL", "lat": -37.9018429988149, "lon": 144.653630000104, "SIGNAL": "R"}, {"OBJECTID": 45501, "SITE_NO": 6271, "SITE_NAME": "WILLS/EDWARDS", "SITE_TYPE": "INT", "STATUS": "OPERATIONAL", "lat": -36.7636439993656, "lon": 144.279811000132, "SIGNAL": "Y"}, {"OBJECTID": 45502, "SITE_NO": 6620, "SITE_NAME": "BRANDY CREEK/ALBERT", "SITE_TYPE": "INT", "STATUS": "OPERATIONAL", "lat": -38.1589529986774, "lon": 145.930325999472, "SIGNAL": "Y"}, {"OBJECTID": 45503, "SITE_NO": 4989, "SITE_NAME": "FITZGERALD/FEDERATION TRAIL", "SITE_TYPE": "POS", "STATUS": "OPERATIONAL", "lat": -37.8356189993169, "lon": 144.783854000112, "SIGNAL": "R"}, {"OBJECTID": 45504, "SITE_NO": 6697, "SITE_NAME": "PRINCES HWY/ASHBY", "SITE_TYPE": "INT", "STATUS": "OPERATIONAL", "lat": -38.2081959989184, "lon": 146.151410999792, "SIGNAL": "R"}, {"OBJECTID": 45505, "SITE_NO": 789, "SITE_NAME": "WELLINGTON/NAPOLEON", "SITE_TYPE": "INT", "STATUS": "OPERATIONAL", "lat": -37.9287959987309, "lon": 145.265149000497, "SIGNAL": "G"}, {"OBJECTID": 45506, "SITE_NO": 3724, "SITE_NAME": "MONASH/FORSTER I/B RAMP (RAMP MTR)", "SITE_TYPE": "RAMP MTR", "STATUS": "OPERATIONAL", "lat": -37.8930679992579, "lon": 145.128560999509, "SIGNAL": "R"}, {"OBJECTID": 45507, "SITE_NO": 4477, "SITE_NAME": "ELLIOTT/BRENS", "SITE_TYPE": "INT", "STATUS": "OPERATIONAL", "lat": -37.7895089993615, "lon": 144.945192999782, "SIGNAL": "Y"}, {"OBJECTID": 45508, "SITE_NO": 473, "SITE_NAME": "HIGH ST RD NR TECK", "SITE_TYPE": "POS", "STATUS": "OPERATIONAL", "lat": -37.8673249988655, "lon": 145.106690999797, "SIGNAL": "G"}, {"OBJECTID": 45509, "SITE_NO": 3610, "SITE_NAME": "PASCOE VALE/TANDERRUM WAY", "SITE_TYPE": "INT", "STATUS": "OPERATIONAL", "lat": -37.6823899990272, "lon": 144.919395999554, "SIGNAL": "R"}, {"OBJECTID": 45510, "SITE_NO": 3358, "SITE_NAME": "THE CIRCUIT/LORIMER/G'BOROURGH SHOP", "SITE_TYPE": "INT", "STATUS": "OPERATIONAL", "lat": -37.7028549988243, "lon": 145.100865000235, "SIGNAL": "G"}, {"OBJECTID": 45511, "SITE_NO": 153, "SITE_NAME": "MAROONDAH/CIVIC CENTRE", "SITE_TYPE": "INT", "STATUS": "OPERATIONAL", "lat": -37.8182039993752, "lon": 145.180597999561, "SIGNAL": "Y"}, {"OBJECTID": 45512, "SITE_NO": 6204, "SITE_NAME": "CHARLESTON/NOLAN", "SITE_TYPE": "INT", "STATUS": "OPERATIONAL", "lat": -36.7522849988245, "lon": 144.294246000338, "SIGNAL": "G"}, {"OBJECTID": 45513, "SITE_NO": 3434, "SITE_NAME": "BARKLY NR ALBERT", "SITE_TYPE": "POS", "STATUS": "OPERATIONAL", "lat": -37.7996619991995, "lon": 144.89864200007, "SIGNAL": "Y"}, {"OBJECTID": 45514, "SITE_NO": 3272, "SITE_NAME": "STATION NR COLLINS", "SITE_TYPE": "POS", "STATUS": "OPERATIONAL", "lat": -37.7557979991298, "lon": 145.020818000239, "SIGNAL": "R"}, {"OBJECTID": 45515, "SITE_NO": 5802, "SITE_NAME": "MIDLAND HWY (ALBERT ST) NR VICKERS", "SITE_TYPE": "POS", "STATUS": "OPERATIONAL", "lat": -37.5919649993345, "lon": 143.841104000419, "SIGNAL": "Y"}, {"OBJECTID": 45516, "SITE_NO": 3942, "SITE_NAME": "HIGHBURY NR MONTPELLIER", "SITE_TYPE": "POS", "STATUS": "OPERATIONAL", "lat": -37.8548039993623, "lon": 145.107784999951, "SIGNAL": "G"}, {"OBJECTID": 45517, "SITE_NO": 3107, "SITE_NAME": "HIGHETT NR RAILWAY DD1388", "SITE_TYPE": "POS", "STATUS": "OPERATIONAL", "lat": -37.9488679991299, "lon": 145.042941999717, "SIGNAL": "Y"}, {"OBJECTID": 45518, "SITE_NO": 4635, "SITE_NAME": "CHESTERVILLE/COCHRANES", "SITE_TYPE": "INT", "STATUS": "OPERATIONAL", "lat": -37.941896999045, "lon": 145.060159999716, "SIGNAL": "G"}, {"OBJECTID": 45519, "SITE_NO": 2958, "SITE_NAME": "HUNTINGDALE/BURLINGTON", "SITE_TYPE": "INT", "STATUS": "OPERATIONAL", "lat": -37.9036099989873, "lon": 145.104942999709, "SIGNAL": "G"}, {"OBJECTID": 45520, "SITE_NO": 2959, "SITE_NAME": "ATHERTON NR REGENT (OAK FIRE STN)", "SITE_TYPE": "FIRE W/W", "STATUS": "OPERATIONAL", "lat": -37.8994749990281, "lon": 145.095257999691, "SIGNAL": "R"}, {"OBJECTID": 45521, "SITE_NO": 3744, "SITE_NAME": "METROPOLITAN RING ROAD/DALTON", "SITE_TYPE": "INT", "STATUS": "OPERATIONAL", "lat": -37.6874979995304, "lon": 145.028583999629, "SIGNAL": "G"}, {"OBJECTID": 45522, "SITE_NO": 4981, "SITE_NAME": "MELBOURNE NR BUNBURY (FIRE STN)", "SITE_TYPE": "FIRE W/W", "STATUS": "OPERATIONAL", "lat": -37.848900999225, "lon": 144.887474999867, "SIGNAL": "G"}, {"OBJECTID": 45523, "SITE_NO": 3797, "SITE_NAME": "LYGON NR PARK", "SITE_TYPE": "POS", "STATUS": "OPERATIONAL", "lat": -37.7791529995236, "lon": 144.970548999804, "SIGNAL": "G"}, {"OBJECTID": 45524, "SITE_NO": 3881, "SITE_NAME": "EDWARDES NR SPRATLING", "SITE_TYPE": "POS", "STATUS": "OPERATIONAL", "lat": -37.7151839995372, "lon": 144.995353000018, "SIGNAL": "G"}, {"OBJECTID": 45525, "SITE_NO": 4835, "SITE_NAME": "WITHERS/DICKSON", "SITE_TYPE": "INT", "STATUS": "OPERATIONAL", "lat": -37.7870209987613, "lon": 144.834077999866, "SIGNAL": "G"}, {"OBJECTID": 45526, "SITE_NO": 3773, "SITE_NAME": "THE LAKES NR THE PROMENADE", "SITE_TYPE": "FLASH PX", "STATUS": "OPERATIONAL", "lat": -37.6381879991047, "lon": 145.067213000364, "SIGNAL": "Y"}, {"OBJECTID": 45527, "SITE_NO": 6724, "SITE_NAME": "PHW NR HUNTER", "SITE_TYPE": "POS", "STATUS": "OPERATIONAL", "lat": -38.1312359990045, "lon": 141.630239999742, "SIGNAL": "R"}, {"OBJECTID": 45528, "SITE_NO": 570, "SITE_NAME": "CRANBOURNE-FRANKSTON/HALL", "SITE_TYPE": "INT", "STATUS": "OPERATIONAL", "lat": -38.109886999309, "lon": 145.252854999913, "SIGNAL": "Y"}, {"OBJECTID": 45529, "SITE_NO": 3177, "SITE_NAME": "BERWICK-CRANBOURNE/GLASSCOCKS/GRICES", "SITE_TYPE": "INT", "STATUS": "OPERATIONAL", "lat": -38.0745109990011, "lon": 145.335344000119, "SIGNAL": "G"}, {"OBJECTID": 45530, "SITE_NO": 3097, "SITE_NAME": "RAILWAY NR CYRIL", "SITE_TYPE": "POS", "STATUS": "OPERATIONAL", "lat": -37.9783259991019, "lon": 145.192488999925, "SIGNAL": "G"}, {"OBJECTID": 45531, "SITE_NO": 566, "SITE_NAME": "PATRICK NORTHEAST NR MAGID", "SITE_TYPE": "FLASH PX", "STATUS": "OPERATIONAL", "lat": -38.0201169986888, "lon": 145.3013190002, "SIGNAL": "G"}, {"OBJECTID": 45532, "SITE_NO": 2756, "SITE_NAME": "CALDER FWY/KEILOR PARK", "SITE_TYPE": "RAMP MTR", "STATUS": "OPERATIONAL", "lat": -37.7245539987974, "lon": 144.849799000356, "SIGNAL": "G"}, {"OBJECTID": 45533, "SITE_NO": 878, "SITE_NAME": "MONASH FWY/JACKSONS (IB)", "SITE_TYPE": "RAMP MTR", "STATUS": "OPERATIONAL", "lat": -37.9345689991283, "lon": 145.19081600024, "SIGNAL": "R"}, {"OBJECTID": 45534, "SITE_NO": 701, "SITE_NAME": "HALL/LYREBIRD", "SITE_TYPE": "INT", "STATUS": "OPERATIONAL", "lat": -38.1013499986854, "lon": 145.187737999579, "SIGNAL": "G"}, {"OBJECTID": 45535, "SITE_NO": 5067, "SITE_NAME": "GEELONG-BACCHUS MARSH/CORIO VILLAGE SC", "SITE_TYPE": "INT", "STATUS": "OPERATIONAL", "lat": -38.0761509986787, "lon": 144.358538999782, "SIGNAL": "R"}, {"OBJECTID": 45536, "SITE_NO": 5022, "SITE_NAME": "CORIO-WAURN PONDS (SETTLEMENT) NR MERNDA", "SITE_TYPE": "POS", "STATUS": "OPERATIONAL", "lat": -38.1819299992115, "lon": 144.341066999979, "SIGNAL": "G"}, {"OBJECTID": 45537, "SITE_NO": 3969, "SITE_NAME": "CAMP/NORTHCORP", "SITE_TYPE": "INT", "STATUS": "OPERATIONAL", "lat": -37.6890039994975, "lon": 144.952343000207, "SIGNAL": "Y"}, {"OBJECTID": 45538, "SITE_NO": 5229, "SITE_NAME": "BREAKWATER/TUCKER/CURRIER", "SITE_TYPE": "INT", "STATUS": "OPERATIONAL", "lat": -38.1823139987707, "lon": 144.366581999588, "SIGNAL": "R"}, {"OBJECTID": 45539, "SITE_NO": 542, "SITE_NAME": "WELLS/ENTERPRIZE", "SITE_TYPE": "INT", "STATUS": "OPERATIONAL", "lat": -38.0336889992339, "lon": 145.134204000451, "SIGNAL": "R"}, {"OBJECTID": 45540, "SITE_NO": 555, "SITE_NAME": "NEPEAN/LONSDALE", "SITE_TYPE": "INT", "STATUS": "OPERATIONAL", "lat": -38.351214999176, "lon": 144.921466999842, "SIGNAL": "R"}, {"OBJECTID": 45541, "SITE_NO": 879, "SITE_NAME": "POINT NEPEAN NR CAPEL", "SITE_TYPE": "POS", "STATUS": "OPERATIONAL", "lat": -38.3636319989494, "lon": 144.876275000477, "SIGNAL": "G"}, {"OBJECTID": 45542, "SITE_NO": 6645, "SITE_NAME": "MOE-GLENGARRY(JOHN FIELD)/SHANAHAN", "SITE_TYPE": "INT", "STATUS": "OPERATIONAL", "lat": -38.1871359986801, "lon": 146.284695000201, "SIGNAL": "G"}, {"OBJECTID": 45543, "SITE_NO": 6647, "SITE_NAME": "MOE-GLENGARRY(JOHN FIELD)/OLD SALE", "SITE_TYPE": "INT", "STATUS": "OPERATIONAL", "lat": -38.1799909988483, "lon": 146.294665000143, "SIGNAL": "R"}, {"OBJECTID": 45544, "SITE_NO": 6657, "SITE_NAME": "MORWELL-THORPDALE/COMMERCIAL", "SITE_TYPE": "INT", "STATUS": "OPERATIONAL", "lat": -38.2357069990854, "lon": 146.391267000196, "SIGNAL": "R"}, {"OBJECTID": 45545, "SITE_NO": 6658, "SITE_NAME": "COMMERCIAL NR TARWIN", "SITE_TYPE": "POS", "STATUS": "OPERATIONAL", "lat": -38.2376469991019, "lon": 146.398352000154, "SIGNAL": "Y"}, {"OBJECTID": 45546, "SITE_NO": 6660, "SITE_NAME": "MORWELL-TRARALGON/MCDONALD", "SITE_TYPE": "INT", "STATUS": "OPERATIONAL", "lat": -38.238462999338, "lon": 146.404747999709, "SIGNAL": "G"}, {"OBJECTID": 45547, "SITE_NO": 6662, "SITE_NAME": "MONASH WAY NR SWITCHBACK", "SITE_TYPE": "POS", "STATUS": "OPERATIONAL", "lat": -38.3079419989977, "lon": 146.420723999698, "SIGNAL": "G"}, {"OBJECTID": 45548, "SITE_NO": 6672, "SITE_NAME": "PHE ON RAMP (WEST BOUND)/MONASH WAY", "SITE_TYPE": "INT", "STATUS": "OPERATIONAL", "lat": -38.2464349991783, "lon": 146.426140999519, "SIGNAL": "R"}, {"OBJECTID": 45549, "SITE_NO": 6277, "SITE_NAME": "WILLIAMSON/HARGRAVES (NORTH SIDE)", "SITE_TYPE": "FLASH PX", "STATUS": "OPERATIONAL", "lat": -36.7587339988938, "lon": 144.2803459999, "SIGNAL": "Y"}, {"OBJECTID": 45550, "SITE_NO": 6278, "SITE_NAME": "LYTTLETON NR MITCHELL", "SITE_TYPE": "FLASH PX", "STATUS": "OPERATIONAL", "lat": -36.7617019990293, "lon": 144.281689000116, "SIGNAL": "R"}, {"OBJECTID": 45551, "SITE_NO": 3572, "SITE_NAME": "O'HEA STREET NR ROSS STREET", "SITE_TYPE": "POS", "STATUS": "OPERATIONAL", "lat": -37.7379999990487, "lon": 144.965999999944, "SIGNAL": "Y"}, {"OBJECTID": 45552, "SITE_NO": 1756, "SITE_NAME": "Falconer Road / Yeoman Crt / CFA station", "SITE_TYPE": "INT", "STATUS": "OPERATIONAL", "lat": -37.7706129988111, "lon": 145.221726000014, "SIGNAL": "Y"}, {"OBJECTID": 45553, "SITE_NO": 6279, "SITE_NAME": "STRATHFIELDSAYE/EDWARDS/CONDON", "SITE_TYPE": "INT", "STATUS": "OPERATIONAL", "lat": -36.7732469987778, "lon": 144.305215999942, "SIGNAL": "R"}, {"OBJECTID": 45554, "SITE_NO": 6280, "SITE_NAME": "BARNARD/LUCAN/ARNOLD", "SITE_TYPE": "INT", "STATUS": "OPERATIONAL", "lat": -36.7501729988704, "lon": 144.283472999484, "SIGNAL": "Y"}, {"OBJECTID": 45555, "SITE_NO": 6281, "SITE_NAME": "QUEEN NR KILLIANS WALK", "SITE_TYPE": "POS", "STATUS": "OPERATIONAL", "lat": -36.7607089995455, "lon": 144.281189000126, "SIGNAL": "R"}, {"OBJECTID": 45556, "SITE_NO": 2498, "SITE_NAME": "PHW NR WALES", "SITE_TYPE": "POS", "STATUS": "OPERATIONAL", "lat": -37.8053549990036, "lon": 144.880190999469, "SIGNAL": "G"}, {"OBJECTID": 45557, "SITE_NO": 6092, "SITE_NAME": "MIDLAND HWY/CORIO", "SITE_TYPE": "INT", "STATUS": "OPERATIONAL", "lat": -36.3816209991576, "lon": 145.403333999935, "SIGNAL": "R"}, {"OBJECTID": 45558, "SITE_NO": 6093, "SITE_NAME": "MIDLAND HWY/ST GEORGES", "SITE_TYPE": "INT", "STATUS": "OPERATIONAL", "lat": -36.3822839991142, "lon": 145.408078999959, "SIGNAL": "Y"}, {"OBJECTID": 45559, "SITE_NO": 1305, "SITE_NAME": "FRANKSTON-FLINDERS/PENLINK", "SITE_TYPE": "INT", "STATUS": "OPERATIONAL", "lat": -38.1973549988706, "lon": 145.150152000112, "SIGNAL": "Y"}, {"OBJECTID": 45560, "SITE_NO": 6094, "SITE_NAME": "MIDLAND HWY/ARCHER", "SITE_TYPE": "INT", "STATUS": "OPERATIONAL", "lat": -36.3829579987017, "lon": 145.412873999886, "SIGNAL": "R"}, {"OBJECTID": 45561, "SITE_NO": 6095, "SITE_NAME": "KNIGHT NR HAROLD", "SITE_TYPE": "POS", "STATUS": "OPERATIONAL", "lat": -36.3749749990089, "lon": 145.407917000116, "SIGNAL": "R"}, {"OBJECTID": 45562, "SITE_NO": 6096, "SITE_NAME": "HAWDON NR REA (SHEPP HS)", "SITE_TYPE": "POS", "STATUS": "OPERATIONAL", "lat": -36.3714809990767, "lon": 145.41521899962, "SIGNAL": "G"}, {"OBJECTID": 45563, "SITE_NO": 6097, "SITE_NAME": "MIDLAND HWY/WELSFORD", "SITE_TYPE": "INT", "STATUS": "OPERATIONAL", "lat": -36.3808979989108, "lon": 145.397890999737, "SIGNAL": "Y"}, {"OBJECTID": 45564, "SITE_NO": 6098, "SITE_NAME": "MIDLAND HWY(HIGH)/NORTH", "SITE_TYPE": "INT", "STATUS": "OPERATIONAL", "lat": -36.3819439993694, "lon": 145.405818000259, "SIGNAL": "Y"}, {"OBJECTID": 45565, "SITE_NO": 6100, "SITE_NAME": "BROADWAY NR O'DWYER", "SITE_TYPE": "POS", "STATUS": "OPERATIONAL", "lat": -35.9166979993013, "lon": 145.651342999666, "SIGNAL": "G"}, {"OBJECTID": 45566, "SITE_NO": 6120, "SITE_NAME": "WANGARATTA (TONE)/SISELY", "SITE_TYPE": "INT", "STATUS": "OPERATIONAL", "lat": -36.3606089995404, "lon": 146.310400000179, "SIGNAL": "R"}, {"OBJECTID": 45567, "SITE_NO": 6124, "SITE_NAME": "WANGARATTA (MURPHY)/REID", "SITE_TYPE": "INT", "STATUS": "OPERATIONAL", "lat": -36.3553639988425, "lon": 146.326689000442, "SIGNAL": "R"}, {"OBJECTID": 45568, "SITE_NO": 6147, "SITE_NAME": "MELBOURNE RD NR CROYLAND", "SITE_TYPE": "POS", "STATUS": "OPERATIONAL", "lat": -36.1181469989398, "lon": 146.873684000214, "SIGNAL": "R"}, {"OBJECTID": 45569, "SITE_NO": 5903, "SITE_NAME": "HOWITT/LEARMONTH/GILLIES", "SITE_TYPE": "INT", "STATUS": "OPERATIONAL", "lat": -37.5390609994028, "lon": 143.822260000457, "SIGNAL": "G"}, {"OBJECTID": 45570, "SITE_NO": 5911, "SITE_NAME": "MAIR/ARMSTRONG", "SITE_TYPE": "INT", "STATUS": "OPERATIONAL", "lat": -37.5596379986903, "lon": 143.856690000437, "SIGNAL": "G"}, {"OBJECTID": 45571, "SITE_NO": 5912, "SITE_NAME": "MAIR/LYDIARD", "SITE_TYPE": "INT", "STATUS": "OPERATIONAL", "lat": -37.5598059986825, "lon": 143.858154999833, "SIGNAL": "Y"},